,stop_id,stop_code,stop_name,stop_desc,platform_code,platform_name,stop_lat,stop_lon,zone_id,stop_address,stop_url,level_id,location_type,parent_station,wheelchair_boarding,municipality,on_street,at_street,vehicle_type
0,1,1.0,Washington St opp Ruggles St,,,,42.330957,-71.08275400000001,,,https://www.mbta.com/stops/1,,0,,1,Boston,Washington Street,Ruggles Street,3.0
1,10,10.0,Theo Glynn Way @ Newmarket Sq,,,,42.330555,-71.068787,,,https://www.mbta.com/stops/10,,0,,1,Boston,Theodore Glynn Way,Newmarket Square,3.0
2,10000,10000.0,Tremont St opp Temple Pl,,,,42.355692,-71.062911,,,https://www.mbta.com/stops/10000,,0,,1,Boston,Tremont Street,Temple Place,3.0
3,10003,10003.0,Albany St opp Randall St,,,,42.331590999999996,-71.076237,,,https://www.mbta.com/stops/10003,,0,,0,Boston,Albany Street,Randall Street,3.0
4,10005,10005.0,Albany St opp E Concord St,,,,42.335017,-71.07128,,,https://www.mbta.com/stops/10005,,0,,1,Boston,Albany Street,East Concord Street,3.0
5,10006,10006.0,Albany St opp E Newton St,,,,42.335814,-71.070135,,,https://www.mbta.com/stops/10006,,0,,1,Boston,Albany Street,East Newton Street,3.0
6,10007,10007.0,540 Albany St opp Wareham St,,,,42.338372,-71.066556,,,https://www.mbta.com/stops/10007,,0,,1,Boston,Albany Street,Wareham Street,3.0
7,10008,10008.0,Albany St opp Randolph St,,,,42.339915000000005,-71.064356,,,https://www.mbta.com/stops/10008,,0,,0,Boston,Albany Street,,3.0
8,10009,10009.0,High St @ Duck Lane,,,,42.214985999999996,-70.915924,,,https://www.mbta.com/stops/10009,,0,,0,Hingham,High Street,,3.0
9,1001,1001.0,Newton St @ Arlington Rd,,,,42.307660999999996,-71.169522,,,https://www.mbta.com/stops/1001,,0,,0,Brookline,Newton Street,,3.0
10,10010,10010.0,Southampton St @ Newmarket St,,,,42.330944,-71.064621,,,https://www.mbta.com/stops/10010,,0,,0,Boston,Southampton Street,Newmarket Square,3.0
11,10011,10011.0,Albany St @ Randolph St,,,,42.340162,-71.064227,,,https://www.mbta.com/stops/10011,,0,,1,Boston,Albany Street,,3.0
12,10012,10012.0,Albany St @ Wareham St,,,,42.338361,-71.06666700000001,,,https://www.mbta.com/stops/10012,,0,,1,Boston,Albany Street,Wareham Street,3.0
13,10013,10013.0,Albany St @ E Dedham St,,,,42.337556,-71.067875,,,https://www.mbta.com/stops/10013,,0,,1,Boston,Albany Street,East Dedham Street,3.0
14,10014,10014.0,Albany St opp Boston Medical,,,,42.334342,-71.072226,,,https://www.mbta.com/stops/10014,,0,,1,Boston,Albany Street,,3.0
15,10015,10015.0,Harrison Ave @ E Newton St,,,,42.337402000000004,-71.072162,,,https://www.mbta.com/stops/10015,,0,,1,Boston,Harrison Avenue,East Newton Street,3.0
16,10016,10016.0,TradeCenter 128,,,,42.499311999999996,-71.162566,,,https://www.mbta.com/stops/10016,,0,,0,Woburn,,,3.0
17,10031,10031.0,E 1st St @ P St,,,,42.338307,-71.027132,,,https://www.mbta.com/stops/10031,,0,,0,Boston,East First Street,P Street,3.0
18,10032,10032.0,E 1st St opp O St,,,,42.338274,-71.02920300000001,,,https://www.mbta.com/stops/10032,,0,,0,Boston,East First Street,O Street,3.0
19,10033,10033.0,E 1st St @ O St,,,,42.338176000000004,-71.029444,,,https://www.mbta.com/stops/10033,,0,,0,Boston,East First Street,O Street,3.0
20,101,101.0,Massachusetts Ave @ Sidney St,,,,42.362988,-71.099486,,,https://www.mbta.com/stops/101,,0,,0,Cambridge,Massachusetts Avenue,,3.0
21,10100,10100.0,Albany St @ Randall St,,,,42.331675,-71.076347,,,https://www.mbta.com/stops/10100,,0,,0,Boston,Albany Street,Randall Street,3.0
22,10101,10101.0,Melnea Cass Blvd @ Harrison Ave,,,,42.332066,-71.07914699999999,,,https://www.mbta.com/stops/10101,,0,,0,Boston,Melnea Cass Boulevard,Harrison Avenue,3.0
23,102,102.0,Massachusetts Ave @ Prospect St,,,,42.365291,-71.103404,,,https://www.mbta.com/stops/102,,0,,1,Cambridge,Massachusetts Avenue,Essex Street,3.0
24,1026,1026.0,Chestnut Hill Ave @ Veronica Smith Ctr,,,,42.347693,-71.153921,,,https://www.mbta.com/stops/1026,,0,,0,Boston,Chestnut Hill Avenue,Dighton Street,3.0
25,1027,1027.0,Chestnut Hill Ave @ Englewood Ave,,,,42.337121,-71.152079,,,https://www.mbta.com/stops/1027,,0,,1,Boston,Chestnut Hill Avenue,Englewood Avenue,3.0
26,1029,1029.0,Chestnut Hill Ave @ Commonwealth Ave,,,,42.338312,-71.153451,,,https://www.mbta.com/stops/1029,,0,,1,Boston,Chestnut Hill Avenue,Commonwealth Avenue,3.0
27,1030,1030.0,Chestnut Hill Ave @ Strathmore Rd,,,,42.34026,-71.155274,,,https://www.mbta.com/stops/1030,,0,,1,Boston,Chestnut Hill Avenue,Strathmore Road,3.0
28,1031,1031.0,Chestnut Hill Ave @ Chiswick Rd,,,,42.341096,-71.154737,,,https://www.mbta.com/stops/1031,,0,,1,Boston,Chestnut Hill Avenue,Chiswick Road,3.0
29,1032,1032.0,Chestnut Hill Ave opp Wiltshire Rd,,,,42.343065,-71.153469,,,https://www.mbta.com/stops/1032,,0,,1,Boston,Chestnut Hill Avenue,Wiltshire Road,3.0
30,1033,1033.0,Chestnut Hill Ave @ Wallingford Rd,,,,42.344607,-71.15321999999999,,,https://www.mbta.com/stops/1033,,0,,1,Boston,Chestnut Hill Avenue,William Jackson Avenue,3.0
31,1034,1034.0,Chestnut Hill Ave @ Union St,,,,42.346123,-71.152997,,,https://www.mbta.com/stops/1034,,0,,0,Boston,Chestnut Hill Avenue,Union Street,3.0
32,1035,1035.0,Market St @ Washington St,,,,42.349261,-71.153309,,,https://www.mbta.com/stops/1035,,0,,1,Boston,Market Street,Washington Street,3.0
33,1036,1036.0,Market St @ Sparhawk St,,,,42.351738,-71.151763,,,https://www.mbta.com/stops/1036,,0,,1,Boston,Market Street,Sparhawk Street,3.0
34,1038,1038.0,Market St @ Gardena St,,,,42.354227,-71.15023599999999,,,https://www.mbta.com/stops/1038,,0,,1,Boston,Market Street,Gardena Street,3.0
35,1039,1039.0,Market St @ N Beacon St,,,,42.355569,-71.149366,,,https://www.mbta.com/stops/1039,,0,,1,Boston,Market Street,Lawrence Place,3.0
36,104,104.0,Massachusetts Ave @ Bigelow St,,,,42.366837,-71.10601700000001,,,https://www.mbta.com/stops/104,,0,,0,Cambridge,Massachusetts Avenue,Bigelow Street,3.0
37,1040,1040.0,Market St @ Guest St,,,,42.357313,-71.148285,,,https://www.mbta.com/stops/1040,,0,,1,Boston,Market Street,Guest Street,3.0
38,1041,1041.0,Market St @ Centola St,,,,42.359279,-71.147082,,,https://www.mbta.com/stops/1041,,0,,1,Boston,Birmingham Parkway,Centola Street,3.0
39,10413,10413.0,Columbus Ave @ Weld Ave,,,,42.315067,-71.097752,,,https://www.mbta.com/stops/10413,,0,,0,Boston,Columbus Avenue,Weld Avenue,3.0
40,10417,10417.0,American Legion Hwy @ Blue Hill Ave,,,,42.298266999999996,-71.087238,,,https://www.mbta.com/stops/10417,,0,,0,Boston,American Legion Highway,Blue Hill Avenue,3.0
41,10418,10418.0,American Legion Hwy opp Franklin Hill Ave,,,,42.295828,-71.092507,,,https://www.mbta.com/stops/10418,,0,,0,Boston,American Legion Highway,Ramp - American Legion Highway To Rt 203,3.0
42,10419,10419.0,American Legion Hwy @ Canterbury St,,,,42.285933,-71.109847,,,https://www.mbta.com/stops/10419,,0,,0,Boston,American Legion Highway,Canterbury Street,3.0
43,1042,1042.0,Market St @ Lothrop St,,,,42.360459000000006,-71.146341,,,https://www.mbta.com/stops/1042,,0,,2,Boston,Birmingham Parkway,Lothrop Street,3.0
44,10420,10420.0,opp 150 American Legion Hwy,,,,42.294746999999994,-71.093301,,,https://www.mbta.com/stops/10420,,0,,0,Boston,American Legion Highway,Ramp - American Legion Highway To Rt 203,3.0
45,10421,10421.0,American Legion Hwy @ Walk Hill St,,,,42.287688,-71.106954,,,https://www.mbta.com/stops/10421,,0,,0,Boston,American Legion Highway,Walk Hill Street,3.0
46,10422,10422.0,American Legion Hwy opp Shopping Center,,,,42.284762,-71.111695,,,https://www.mbta.com/stops/10422,,0,,0,Boston,American Legion Highway,Canterbury Street,3.0
47,10423,10423.0,American Legion Hwy @ Stella Rd,,,,42.280752,-71.116254,,,https://www.mbta.com/stops/10423,,0,,0,Boston,American Legion Highway,Stella Road,3.0
48,10424,10424.0,American Legion Hwy @ Cummins Hwy,,,,42.278467,-71.116716,,,https://www.mbta.com/stops/10424,,0,,0,Boston,American Legion Highway,Cummins Highway,3.0
49,10425,10425.0,American Legion Hwy opp Shopping Mall,,,,42.274382,-71.116781,,,https://www.mbta.com/stops/10425,,0,,0,Boston,American Legion Highway,,3.0
50,10426,10426.0,American Legion Hwy @ Army Reserve,,,,42.284246,-71.112437,,,https://www.mbta.com/stops/10426,,0,,0,Boston,American Legion Highway,Canterbury Street,3.0
51,10427,10427.0,American Legion Hwy opp Kingbird Rd,,,,42.293255,-71.094593,,,https://www.mbta.com/stops/10427,,0,,0,Boston,American Legion Highway,Ramp - American Legion Highway To Rt 203,3.0
52,1043,1043.0,Western Ave @ Mackin St,,,,42.361668,-71.144413,,,https://www.mbta.com/stops/1043,,0,,1,Boston,Western Avenue,Mackin Street,3.0
53,1045,1045.0,450 Western Ave,,,,42.362164,-71.14178299999999,,,https://www.mbta.com/stops/1045,,0,,1,Boston,Western Avenue,Kelley Court,3.0
54,1046,1046.0,Western Ave @ Litchfield St,,,,42.362531,-71.139786,,,https://www.mbta.com/stops/1046,,0,,0,Boston,Western Avenue,Litchfield Street,3.0
55,1049,1049.0,Western Ave @ Everett St,,,,42.363093,-71.13544300000001,,,https://www.mbta.com/stops/1049,,0,,0,Boston,Western Avenue,Everett Street,3.0
56,1051,1051.0,Western Ave @ Travis St,,,,42.363248,-71.128518,,,https://www.mbta.com/stops/1051,,0,,1,Boston,Western Avenue,Travis Street,3.0
57,1052,1052.0,130 Western Ave,,,,42.363526,-71.125043,,,https://www.mbta.com/stops/1052,,0,,1,Boston,Western Avenue,,3.0
58,10522,10522.0,Circuit Dr @ Glen Ln,,,,42.305104,-71.094684,,,https://www.mbta.com/stops/10522,,0,,1,Boston,Jewish War Veterans Drive,Pierpoint Road,3.0
59,1053,1053.0,Western Ave @ Genzyme,,,,42.363915000000006,-71.119805,,,https://www.mbta.com/stops/1053,,0,,1,Boston,Western Avenue,,3.0
60,10540,10540.0,Morton St @ Evans St,,,,42.280885999999995,-71.084654,,,https://www.mbta.com/stops/10540,,0,,1,Boston,Morton Street,Evans Street,3.0
61,1055,1055.0,River St opp Blackstone St,,,,42.361913,-71.114378,,,https://www.mbta.com/stops/1055,,0,,0,Cambridge,River Street,Blackstone Street,3.0
62,1056,1056.0,River St @ Fairmont St,,,,42.362565000000004,-71.112387,,,https://www.mbta.com/stops/1056,,0,,0,Cambridge,River Street,Fairmont Street,3.0
63,10569,10569.0,2165 Dorchester Ave,,,,42.276284999999994,-71.067029,,,https://www.mbta.com/stops/10569,,0,,1,Boston,Dorchester Avenue,,3.0
64,1057,1057.0,River St @ Kelly Rd,,,,42.363156,-71.110605,,,https://www.mbta.com/stops/1057,,0,,0,Cambridge,River Street,Howard Street,3.0
65,1058,1058.0,River St @ Pleasant St,,,,42.36385,-71.108586,,,https://www.mbta.com/stops/1058,,0,,0,Cambridge,River Street,,3.0
66,10582,10582.0,River St opp Fremont St,,,,42.269983,-71.08986800000001,,,https://www.mbta.com/stops/10582,,0,,0,Boston,River Street,Mamelon Circle,3.0
67,10590,10590.0,Massachusetts Ave @ Washington St,,,,42.336621,-71.07695600000001,,,https://www.mbta.com/stops/10590,,0,,0,Boston,Massachusetts Avenue,Washington Street,3.0
68,106,106.0,Massachusetts Ave @ Hancock St,,,,42.368390000000005,-71.108618,,,https://www.mbta.com/stops/106,,0,,1,Cambridge,Massachusetts Avenue,Hancock Street,3.0
69,1060,1060.0,Magazine St @ Green St,,,,42.365114,-71.104311,,,https://www.mbta.com/stops/1060,,0,,1,Cambridge,Magazine Street,Green Street,3.0
70,10603,10603.0,Washington St @ Durnell Ave,,,,42.282287,-71.132671,,,https://www.mbta.com/stops/10603,,0,,0,Boston,Washington Street,Rosecliff Street,3.0
71,1061,1061.0,Western Ave @ Kinnaird St,,,,42.364952,-71.108901,,,https://www.mbta.com/stops/1061,,0,,1,Cambridge,Western Avenue,Kinnaird Street,3.0
72,10612,10612.0,Washington St opp W Boundary Rd,,,,42.267920000000004,-71.149996,,,https://www.mbta.com/stops/10612,,0,,0,Boston,Washington Street,Carol Circle,3.0
73,10618,10618.0,Washington St @ Sumner St,,,,42.256411,-71.163235,,,https://www.mbta.com/stops/10618,,0,,0,Dedham,Washington Street,Sumner Street,3.0
74,1062,1062.0,Western Ave @ Howard St,,,,42.364798,-71.110649,,,https://www.mbta.com/stops/1062,,0,,0,Cambridge,Western Avenue,Howard Street,3.0
75,10625,10625.0,Washington St opp Heron St,,,,42.26883,-71.148551,,,https://www.mbta.com/stops/10625,,0,,0,Boston,Washington Street,Heron Street,3.0
76,10633,10633.0,Washington St @ Rosecliff St,,,,42.282087,-71.132727,,,https://www.mbta.com/stops/10633,,0,,0,Boston,Washington Street,Rosecliff Street,3.0
77,1064,1064.0,Western Ave @ Putnam Ave,,,,42.364492,-71.114114,,,https://www.mbta.com/stops/1064,,0,,0,Cambridge,Western Avenue,Putnam Avenue,3.0
78,1067,1067.0,Western Ave opp Genzyme,,,,42.364074,-71.119704,,,https://www.mbta.com/stops/1067,,0,,1,Boston,Western Avenue,,3.0
79,1068,1068.0,125 Western Ave,,,,42.363686,-71.124387,,,https://www.mbta.com/stops/1068,,0,,1,Boston,Western Avenue,,3.0
80,107,107.0,Massachusetts Ave @ Dana St,,,,42.369265000000006,-71.110773,,,https://www.mbta.com/stops/107,,0,,1,Cambridge,Massachusetts Avenue,Dana Street,3.0
81,1070,1070.0,Western Ave @ N Harvard St,,,,42.363284,-71.129148,,,https://www.mbta.com/stops/1070,,0,,1,Boston,Western Avenue,Travis Street,3.0
82,1071,1071.0,Western Ave opp Riverdale St,,,,42.363253,-71.132079,,,https://www.mbta.com/stops/1071,,0,,1,Boston,Western Avenue,Riverdale Street,3.0
83,1072,1072.0,Western Ave @ Everett St,,,,42.363178999999995,-71.135542,,,https://www.mbta.com/stops/1072,,0,,1,Boston,Western Avenue,Everett Street,3.0
84,1074,1074.0,367 Western Ave opp Brighton Mills Mall,,,,42.362807000000004,-71.13851899999999,,,https://www.mbta.com/stops/1074,,0,,1,Boston,Western Avenue,,3.0
85,1075,1075.0,Western Ave opp Litchfield St,,,,42.362662,-71.139575,,,https://www.mbta.com/stops/1075,,0,,1,Boston,Western Avenue,Litchfield Street,3.0
86,1076,1076.0,445 Western Ave,,,,42.362341,-71.14135999999999,,,https://www.mbta.com/stops/1076,,0,,0,Boston,Western Avenue,Waverly Street,3.0
87,10768,10768.0,Centre St @ Grove St,,,,42.268863,-71.161907,,,https://www.mbta.com/stops/10768,,0,,0,Boston,Centre Street,Grove Street,3.0
88,10769,10769.0,Centre St @ Grove St,,,,42.268890999999996,-71.161806,,,https://www.mbta.com/stops/10769,,0,,0,Boston,Centre Street,Grove Street,3.0
89,1077,1077.0,495 Western Ave,,,,42.361858000000005,-71.144012,,,https://www.mbta.com/stops/1077,,0,,0,Boston,Western Avenue,Richardson Street,3.0
90,10777,10777.0,Spring St @ Cass St,,,,42.27717,-71.164194,,,https://www.mbta.com/stops/10777,,0,,1,Boston,Spring Street,Springvale Avenue,3.0
91,1079,1079.0,Market St @ Vineland St,,,,42.356921,-71.148686,,,https://www.mbta.com/stops/1079,,0,,1,Boston,Market Street,Vineland Street,3.0
92,108,108.0,Massachusetts Ave @ Trowbridge St,,,,42.37027,-71.112998,,,https://www.mbta.com/stops/108,,0,,1,Cambridge,Massachusetts Avenue,Trowbridge Street,3.0
93,1081,1081.0,Market St opp Gardena St,,,,42.354329,-71.150346,,,https://www.mbta.com/stops/1081,,0,,1,Boston,Market Street,Gardena Street,3.0
94,10820,10820.0,Veterans Hospital West Roxbury,,,,42.274823,-71.172103,,,https://www.mbta.com/stops/10820,,0,,1,Boston,,,3.0
95,10821,10821.0,Charles Park Rd @ VFW Pkwy,,,,42.276826,-71.172521,,,https://www.mbta.com/stops/10821,,0,,0,Boston,Charles Park Road,Veterans Of Foreign Wars Parkway,3.0
96,1083,1083.0,Market St @ Arlington St,,,,42.35151,-71.152061,,,https://www.mbta.com/stops/1083,,0,,1,Boston,Market Street,Sparhawk Street,3.0
97,10830,10830.0,5 Charles Park Rd,,,,42.276931,-71.172561,,,https://www.mbta.com/stops/10830,,0,,1,Boston,Charles Park Road,Veterans Of Foreign Wars Parkway,3.0
98,10832,10832.0,Dedham Mall @ Old Navy,,,,42.253871999999994,-71.16863000000001,,,https://www.mbta.com/stops/10832,,0,,1,Dedham,,,3.0
99,10833,10833.0,Dedham Mall @ Stop & Shop,,,,42.258725,-71.16853,,,https://www.mbta.com/stops/10833,,0,,1,Dedham,,,3.0
100,1084,1084.0,Chestnut Hill Ave @ Washington St,,,,42.349027,-71.153531,,,https://www.mbta.com/stops/1084,,0,,0,Boston,Chestnut Hill Avenue,Washington Street,3.0
101,1085,1085.0,Chestnut Hill Ave @ Academy Hill Rd,,,,42.347089000000004,-71.15375,,,https://www.mbta.com/stops/1085,,0,,0,Boston,Chestnut Hill Avenue,Academy Hill Road,3.0
102,1086,1086.0,Chestnut Hill Ave @ Jackson Ave,,,,42.344738,-71.153293,,,https://www.mbta.com/stops/1086,,0,,1,Boston,Chestnut Hill Avenue,William Jackson Avenue,3.0
103,1087,1087.0,Chestnut Hill Ave @ Wiltshire Rd,,,,42.343049,-71.153613,,,https://www.mbta.com/stops/1087,,0,,1,Boston,Chestnut Hill Avenue,Atwood Road,3.0
104,1088,1088.0,Chestnut Hill Ave @ Embassy Rd,,,,42.341436,-71.154691,,,https://www.mbta.com/stops/1088,,0,,1,Boston,Chestnut Hill Avenue,Embassy Road,3.0
105,1089,1089.0,Chestnut Hill Ave @ South St,,,,42.340486,-71.155288,,,https://www.mbta.com/stops/1089,,0,,1,Boston,Chestnut Hill Avenue,Strathmore Road,3.0
106,109,109.0,Massachusetts Ave @ Bow St,,,,42.372099,-71.115371,,,https://www.mbta.com/stops/109,,0,,1,Cambridge,Massachusetts Avenue,Harvard Street,3.0
107,1090,1090.0,Chestnut Hill Ave @ Commonwealth Ave,,,,42.33833,-71.153702,,,https://www.mbta.com/stops/1090,,0,,1,Boston,Chestnut Hill Avenue,Commonwealth Avenue,3.0
108,1092,1092.0,Chestnut Hill Ave @ Beacon St,,,,42.336219,-71.151237,,,https://www.mbta.com/stops/1092,,0,,1,Boston,Chestnut Hill Avenue,Beacon Street,3.0
109,10923,10923.0,Cummins Hwy @ Wood Ave,,,,42.274133,-71.109187,,,https://www.mbta.com/stops/10923,,0,,1,Boston,Cummins Highway,Harvard Street,3.0
110,10928,10928.0,Harvard Ave @ Brighton Ave,,,,42.352614,-71.132097,,,https://www.mbta.com/stops/10928,,0,,0,Boston,Harvard Avenue,,3.0
111,1093,1093.0,Faneuil St @ Brackett St,,,,42.351893,-71.165214,,,https://www.mbta.com/stops/1093,,0,,0,Boston,Faneuil Street,Brackett Street,3.0
112,1094,1094.0,Faneuil St @ Fairbanks St,,,,42.352365999999996,-71.163015,,,https://www.mbta.com/stops/1094,,0,,0,Boston,Faneuil Street,Fairbanks Street,3.0
113,1095,1095.0,Faneuil St @ Oakland St,,,,42.3526,-71.160686,,,https://www.mbta.com/stops/1095,,0,,1,Boston,Faneuil Street,Oakland Street,3.0
114,1097,1097.0,Faneuil St @ S Hobart St,,,,42.353970000000004,-71.15813399999999,,,https://www.mbta.com/stops/1097,,0,,0,Boston,Faneuil Street,Falkland Street,3.0
115,1098,1098.0,Hobart St @ Falkland St,,,,42.354858,-71.158565,,,https://www.mbta.com/stops/1098,,0,,0,Boston,Hobart Street,Falkland Street,3.0
116,109802,109802.0,Saratoga St @ Teragram St,,,,42.383937,-70.99945100000001,,,https://www.mbta.com/stops/109802,,0,,0,Boston,Saratoga Street,Teragram Street,3.0
117,109804,109804.0,Main St @ Pleasant St,,,,42.382329999999996,-70.991479,,,https://www.mbta.com/stops/109804,,0,,0,Winthrop,Main Street,Pleasant Street,3.0
118,109805,109805.0,Main St @ Beal St,,,,42.382135,-70.98895999999999,,,https://www.mbta.com/stops/109805,,0,,0,Winthrop,Main Street,Beal Street,3.0
119,109807,109807.0,Hermon St @ Lincoln St,,,,42.379616999999996,-70.985872,,,https://www.mbta.com/stops/109807,,0,,1,Winthrop,Hermon Street,Lincoln Street,3.0
120,109808,109808.0,Hermon St opp Belcher St,,,,42.378273,-70.985764,,,https://www.mbta.com/stops/109808,,0,,0,Winthrop,Hermon Street,Belcher Street,3.0
121,109809,109809.0,Pauline St opp Woodside Ave,,,,42.375909,-70.98769300000001,,,https://www.mbta.com/stops/109809,,0,,1,Winthrop,Pauline Street,Woodside Avenue,3.0
122,109810,109810.0,Pauline St @ Pleasant St,,,,42.374435999999996,-70.991198,,,https://www.mbta.com/stops/109810,,0,,0,Winthrop,Pauline Street,Pleasant Street,3.0
123,109811,109811.0,Pleasant St @ Somerset Ave,,,,42.37318,-70.989766,,,https://www.mbta.com/stops/109811,,0,,0,Winthrop,Pleasant Street,Somerset Avenue,3.0
124,109812,109812.0,Pleasant St @ Bartlett Rd,,,,42.372904,-70.987328,,,https://www.mbta.com/stops/109812,,0,,0,Winthrop,Pleasant Street,Bartlett Road,3.0
125,109814,109814.0,Pleasant St @ Sunnyside Ave,,,,42.372595000000004,-70.984668,,,https://www.mbta.com/stops/109814,,0,,0,Winthrop,Pleasant Street,Buchanan Street,3.0
126,109815,109815.0,Pleasant St @ Seaview Ave,,,,42.372389,-70.98292,,,https://www.mbta.com/stops/109815,,0,,0,Winthrop,Pleasant Street,Seaview Avenue,3.0
127,109816,109816.0,Pleasant St @ Winthrop St,,,,42.372198,-70.98113199999999,,,https://www.mbta.com/stops/109816,,0,,0,Winthrop,Pleasant Street,Winthrop Street,3.0
128,109817,109817.0,Washington Ave opp Willow Ave,,,,42.372168,-70.978521,,,https://www.mbta.com/stops/109817,,0,,0,Winthrop,Washington Avenue,Willow Avenue,3.0
129,109818,109818.0,Washington Ave opp Lewis Ave,,,,42.372021000000004,-70.976842,,,https://www.mbta.com/stops/109818,,0,,0,Winthrop,Washington Avenue,Lewis Avenue,3.0
130,109819,109819.0,Washington Ave opp River Rd,,,,42.3719,-70.974424,,,https://www.mbta.com/stops/109819,,0,,0,Winthrop,Washington Avenue,River Road,3.0
131,109820,109820.0,Washington Ave opp Veterans Rd,,,,42.372456,-70.97191,,,https://www.mbta.com/stops/109820,,0,,1,Winthrop,Washington Avenue,,3.0
132,109821,109821.0,Veterans Rd @ Washington Ave,,,,42.372701,-70.971585,,,https://www.mbta.com/stops/109821,,0,,0,Winthrop,Veterans Road,Washington Avenue,3.0
133,109822,109822.0,Veterans Rd @ Cutler St,,,,42.374284,-70.97280400000001,,,https://www.mbta.com/stops/109822,,0,,0,Winthrop,Veterans Road,Cutler Street,3.0
134,109823,109823.0,Veterans Rd @ Levy Bramson Way,,,,42.375878,-70.97402,,,https://www.mbta.com/stops/109823,,0,,0,Winthrop,Veterans Road,Levy Bramson Way,3.0
135,109824,109824.0,Veterans Rd opp Seafoam Ave,,,,42.377434,-70.974987,,,https://www.mbta.com/stops/109824,,0,,0,Winthrop,Veterans Road,Levy Bramson Way,3.0
136,109825,109825.0,Veterans Rd @ Hadassah Way,,,,42.378929,-70.975801,,,https://www.mbta.com/stops/109825,,0,,0,Winthrop,Veterans Road,Hadassah Way,3.0
137,109826,109826.0,Veterans Rd @ Shirley St,,,,42.381135,-70.975503,,,https://www.mbta.com/stops/109826,,0,,0,Winthrop,Veterans Road,Shirley Street,3.0
138,109827,109827.0,Veterans Rd @ Locust St,,,,42.382563,-70.973827,,,https://www.mbta.com/stops/109827,,0,,0,Winthrop,Veterans Road,Locust Street,3.0
139,109828,109828.0,Crest Ave @ Grovers Ave,,,,42.384521,-70.973152,,,https://www.mbta.com/stops/109828,,0,,0,Winthrop,Crest Avenue,Grovers Avenue,3.0
140,109829,109829.0,Crest Ave @ Highland Ave,,,,42.386455,-70.97574499999999,,,https://www.mbta.com/stops/109829,,0,,0,Winthrop,Crest Avenue,Revere Street,3.0
141,109830,109830.0,Revere St opp Summit Ave,,,,42.384736,-70.978052,,,https://www.mbta.com/stops/109830,,0,,1,Winthrop,Revere Street,Summit Avenue,3.0
142,109831,109831.0,Revere St @ Governors Dr,,,,42.38248,-70.980365,,,https://www.mbta.com/stops/109831,,0,,0,Winthrop,Revere Street,Governors Drive,3.0
143,109832,109832.0,Revere St @ Winthrop St,,,,42.38167,-70.98227,,,https://www.mbta.com/stops/109832,,0,,0,Winthrop,Revere Street,Main Street,3.0
144,109834,109834.0,Main St @ Douglas St,,,,42.381999,-70.986122,,,https://www.mbta.com/stops/109834,,0,,0,Winthrop,Main Street,Hermon Street,3.0
145,109835,109835.0,Main St @ Fairview St,,,,42.382255,-70.98894200000001,,,https://www.mbta.com/stops/109835,,0,,0,Winthrop,Main Street,Fairview,3.0
146,109836,109836.0,Main St @ Pleasant St,,,,42.38247,-70.991716,,,https://www.mbta.com/stops/109836,,0,,0,Winthrop,Main Street,Pleasant Street,3.0
147,109838,109838.0,Saratoga St opp Teragram St,,,,42.383963,-70.99915899999999,,,https://www.mbta.com/stops/109838,,0,,0,Boston,Saratoga Street,Teragram Street,3.0
148,109841,109841.0,Shirley St opp Moore St,,,,42.370713,-70.97044100000001,,,https://www.mbta.com/stops/109841,,0,,1,Winthrop,Shirley Street,Moore Street,3.0
149,109842,109842.0,Shirley St opp Crystal Cove Ave,,,,42.369467,-70.971284,,,https://www.mbta.com/stops/109842,,0,,0,Winthrop,Shirley Street,Crystal Cove Avenue,3.0
150,109843,109843.0,Shirley St @ Winthrop Yacht Club,,,,42.368584999999996,-70.971705,,,https://www.mbta.com/stops/109843,,0,,0,Winthrop,Shirley Street,Terrace Avenue,3.0
151,109844,109844.0,Shirley St @ Pontos St,,,,42.36538,-70.96932,,,https://www.mbta.com/stops/109844,,0,,0,Winthrop,Shirley Street,Pontos Street,3.0
152,109845,109845.0,Shirley St @ Petrel St,,,,42.363754,-70.970139,,,https://www.mbta.com/stops/109845,,0,,0,Winthrop,Shirley Street,Petrel Street,3.0
153,109846,109846.0,Shirley St opp Yirrell Beach,,,,42.36303,-70.97039000000001,,,https://www.mbta.com/stops/109846,,0,,0,Winthrop,Shirley Street,,3.0
154,109847,109847.0,Shirley St @ Nerious St,,,,42.362146,-70.9706,,,https://www.mbta.com/stops/109847,,0,,0,Winthrop,Shirley Street,Nerious Street,3.0
155,109848,109848.0,Shirley St @ Bay View Ave,,,,42.360982,-70.970887,,,https://www.mbta.com/stops/109848,,0,,0,Winthrop,Shirley Street,Bay View Avenue,3.0
156,109849,109849.0,Tafts Ave @ Otis St,,,,42.358897,-70.970587,,,https://www.mbta.com/stops/109849,,0,,0,Winthrop,Tafts Avenue,Otis Street,3.0
157,109850,109850.0,Tafts Ave @ Townsend St,,,,42.358426,-70.970394,,,https://www.mbta.com/stops/109850,,0,,0,Winthrop,Tafts Avenue,Townsend Street,3.0
158,109853,109853.0,Deer Island - MWRA Gate,,,,42.35569,-70.967704,,,https://www.mbta.com/stops/109853,,0,,0,Boston,,,3.0
159,109856,109856.0,Tafts Ave opp Townsend St,,,,42.358415,-70.9702,,,https://www.mbta.com/stops/109856,,0,,0,Winthrop,Tafts Avenue,Townsend Street,3.0
160,109857,109857.0,Tafts Ave @ Otis St,,,,42.358937,-70.970453,,,https://www.mbta.com/stops/109857,,0,,0,Winthrop,Tafts Avenue,Otis Street,3.0
161,109858,109858.0,Shirley St @ Bay View Ave,,,,42.360776,-70.970795,,,https://www.mbta.com/stops/109858,,0,,0,Winthrop,Shirley Street,Bay View Avenue,3.0
162,109859,109859.0,Shirley St @ Nerious St,,,,42.361946,-70.970483,,,https://www.mbta.com/stops/109859,,0,,0,Winthrop,Shirley Street,Nerious Street,3.0
163,109860,109860.0,Shirley St @ Yirrell Beach,,,,42.362996,-70.97021600000001,,,https://www.mbta.com/stops/109860,,0,,0,Winthrop,Shirley Street,,3.0
164,109861,109861.0,Shirley St @ Petrel St,,,,42.363541999999995,-70.97007099999999,,,https://www.mbta.com/stops/109861,,0,,0,Winthrop,Shirley Street,Petrel Street,3.0
165,109862,109862.0,Shirley St opp Pontos St,,,,42.365243,-70.96921,,,https://www.mbta.com/stops/109862,,0,,2,Winthrop,Shirley Street,Pontos Street,3.0
166,109863,109863.0,Shirley St opp Winthrop Yacht Club,,,,42.368589,-70.971565,,,https://www.mbta.com/stops/109863,,0,,2,Winthrop,Shirley Street,Terrace Avenue,3.0
167,109864,109864.0,Shirley St @ Crystal Cove Ave,,,,42.369295,-70.971194,,,https://www.mbta.com/stops/109864,,0,,0,Winthrop,Shirley Street,Crystal Cove Avenue,3.0
168,109865,109865.0,Shirley St @ Moore St,,,,42.370549,-70.970361,,,https://www.mbta.com/stops/109865,,0,,0,Winthrop,Shirley Street,Moore Street,3.0
169,109868,109868.0,Main St @ Hermon St,,,,42.381889,-70.98615,,,https://www.mbta.com/stops/109868,,0,,0,Winthrop,Main Street,Douglas Street,3.0
170,109870,109870.0,Main St @ Winthrop St,,,,42.381544,-70.982478,,,https://www.mbta.com/stops/109870,,0,,0,Winthrop,Main Street,Winthrop Street,3.0
171,109871,109871.0,Revere St opp Governors Dr,,,,42.382314,-70.980466,,,https://www.mbta.com/stops/109871,,0,,0,Winthrop,Revere Street,Governors Drive,3.0
172,109872,109872.0,Revere St @ Summit Ave,,,,42.384712,-70.977889,,,https://www.mbta.com/stops/109872,,0,,0,Winthrop,Revere Street,Summit Avenue,3.0
173,109873,109873.0,Revere St @ Crest Ave,,,,42.386434,-70.975916,,,https://www.mbta.com/stops/109873,,0,,0,Winthrop,Revere Street,Crest Avenue,3.0
174,109874,109874.0,Crest Ave @ Grovers Ave,,,,42.384428,-70.973253,,,https://www.mbta.com/stops/109874,,0,,0,Winthrop,Crest Avenue,Grovers Avenue,3.0
175,109875,109875.0,Beach Rd @ Locust St,,,,42.382589,-70.973709,,,https://www.mbta.com/stops/109875,,0,,0,Winthrop,Beach Road,Winthrop Shore Drive,3.0
176,109877,109877.0,Shirley St opp Coral Ave,,,,42.379054,-70.975001,,,https://www.mbta.com/stops/109877,,0,,0,Winthrop,Shirley Street,Coral Avenue,3.0
177,109878,109878.0,Shirley St opp Seafoam Ave,,,,42.377526,-70.974688,,,https://www.mbta.com/stops/109878,,0,,0,Winthrop,Shirley Street,Sea Foam Avenue,3.0
178,109879,109879.0,Shirley St @ Levy Bramson Way,,,,42.376141,-70.97391800000001,,,https://www.mbta.com/stops/109879,,0,,0,Winthrop,Shirley Street,Levy Bramson Way,3.0
179,109880,109880.0,Shirley St @ Cutler St,,,,42.374553999999996,-70.972555,,,https://www.mbta.com/stops/109880,,0,,0,Winthrop,Shirley Street,Cutler Street,3.0
180,109883,109883.0,Washington Ave @ River Rd,,,,42.372069,-70.97424000000001,,,https://www.mbta.com/stops/109883,,0,,0,Winthrop,Washington Avenue,River Road,3.0
181,109884,109884.0,Washington Ave @ Lewis Ave,,,,42.372114,-70.976577,,,https://www.mbta.com/stops/109884,,0,,0,Winthrop,Washington Avenue,Lewis Avenue,3.0
182,109885,109885.0,Washington Ave @ Willow Ave,,,,42.372279999999996,-70.97826500000001,,,https://www.mbta.com/stops/109885,,0,,0,Winthrop,Washington Avenue,Willow Avenue,3.0
183,109886,109886.0,Washington Ave @ Winthrop St,,,,42.372303,-70.980875,,,https://www.mbta.com/stops/109886,,0,,0,Winthrop,Washington Avenue,Winthrop Street,3.0
184,109887,109887.0,Pleasant St @ Vine Ave,,,,42.372479,-70.98265400000001,,,https://www.mbta.com/stops/109887,,0,,0,Winthrop,Pleasant Street,Seaview Avenue,3.0
185,109888,109888.0,Pleasant St @ Buchanan St,,,,42.372686,-70.984401,,,https://www.mbta.com/stops/109888,,0,,0,Winthrop,Pleasant Street,Buchanan Street,3.0
186,109890,109890.0,Pleasant St @ Bartlett Rd,,,,42.372995,-70.987061,,,https://www.mbta.com/stops/109890,,0,,0,Winthrop,Pleasant Street,Bartlett Road,3.0
187,109891,109891.0,Pleasant St @ Somerset Ave,,,,42.373301,-70.989729,,,https://www.mbta.com/stops/109891,,0,,0,Winthrop,Pleasant Street,Somerset Avenue,3.0
188,109892,109892.0,Pauline St @ Pleasant St,,,,42.374309999999994,-70.991123,,,https://www.mbta.com/stops/109892,,0,,1,Winthrop,Pauline Street,Pleasant Street,3.0
189,109893,109893.0,Pauline St @ Woodside Ave,,,,42.375811,-70.98760300000001,,,https://www.mbta.com/stops/109893,,0,,1,Winthrop,Pauline Street,Woodside Avenue,3.0
190,109894,109894.0,Hermon St @ Belcher St,,,,42.378202,-70.985457,,,https://www.mbta.com/stops/109894,,0,,0,Winthrop,Hermon Street,Belcher Street,3.0
191,109895,109895.0,Hermon St @ Lincoln St,,,,42.379628000000004,-70.985699,,,https://www.mbta.com/stops/109895,,0,,0,Winthrop,Hermon Street,Lincoln Street,3.0
192,109898,109898.0,Shirley St @ Washington Ave,,,,42.372758000000005,-70.971283,,,https://www.mbta.com/stops/109898,,0,,0,Winthrop,Shirley Street,Washington Avenue,3.0
193,109899,109899.0,Revere St @ Golden Dr,,,,42.385674,-70.976635,,,https://www.mbta.com/stops/109899,,0,,1,Winthrop,Revere Street,Hutchinson Street,3.0
194,109900,109900.0,Revere St @ Hutchinson St,,,,42.385582,-70.976529,,,https://www.mbta.com/stops/109900,,0,,0,Winthrop,Revere Street,Golden Drive,3.0
195,109901,109901.0,Shirley St @ Beach Rd,,,,42.380764,-70.97499599999999,,,https://www.mbta.com/stops/109901,,0,,0,Winthrop,Shirley Street,Beach Road,3.0
196,109902,109902.0,Shirley St opp Wave Way,,,,42.376909000000005,-70.974402,,,https://www.mbta.com/stops/109902,,0,,0,Winthrop,Shirley Street,Wave Way,3.0
197,109905,109905.0,Pauline St @ Hermon St,,,,42.376865,-70.984489,,,https://www.mbta.com/stops/109905,,0,,1,Winthrop,Pauline Street,Hermon Street,3.0
198,109906,109906.0,Crest Ave @ Hutchinson St,,,,42.38518,-70.974236,,,https://www.mbta.com/stops/109906,,0,,0,Winthrop,Crest Avenue,Chamberlain Avenue,3.0
199,109914,109914.0,Shirley St @ Tafts Ave,,,,42.36011,-70.971369,,,https://www.mbta.com/stops/109914,,0,,0,Winthrop,Shirley Street,Tafts Avenue,3.0
200,109915,109915.0,Hermon St @ Pauline St,,,,42.377010999999996,-70.984515,,,https://www.mbta.com/stops/109915,,0,,0,Winthrop,Hermon Street,Pauline Street,3.0
201,11,11.0,Melnea Cass Blvd @ Kerr Way,,,,42.334763,-71.084459,,,https://www.mbta.com/stops/11,,0,,0,Boston,Melnea Cass Boulevard,Shawmut Avenue,3.0
202,110,110.0,Massachusetts Ave @ Holyoke St,,,,42.373259000000004,-71.118124,,,https://www.mbta.com/stops/110,,0,,1,Cambridge,Massachusetts Avenue,,3.0
203,1100,1100.0,Hobart St @ Brooks St,,,,42.355539,-71.162428,,,https://www.mbta.com/stops/1100,,0,,0,Boston,Hobart Street,Brooks Street,3.0
204,1102,1102.0,N Beacon St @ Parsons St,,,,42.358297,-71.157999,,,https://www.mbta.com/stops/1102,,0,,1,Boston,North Beacon Street,Parsons Street,3.0
205,1103,1103.0,N Beacon St @ Goodenough St,,,,42.357577,-71.15402399999999,,,https://www.mbta.com/stops/1103,,0,,0,Boston,North Beacon Street,Goodenough Street,3.0
206,1104,1104.0,N Beacon St opp Vineland St,,,,42.357,-71.152801,,,https://www.mbta.com/stops/1104,,0,,0,Boston,North Beacon Street,Vineland Street,3.0
207,1105,1105.0,N Beacon @ Market St,,,,42.355923,-71.148687,,,https://www.mbta.com/stops/1105,,0,,0,Boston,North Beacon Street,Market Street,3.0
208,1107,1107.0,N Beacon St @ Etna St,,,,42.355387,-71.146497,,,https://www.mbta.com/stops/1107,,0,,1,Boston,North Beacon Street,Etna Street,3.0
209,11070,11070.0,Life St @ Guest St,,,,42.35693,-71.14563000000001,,,https://www.mbta.com/stops/11070,,0,,0,Boston,Life Street,Guest Street,3.0
210,11071,11071.0,Arthur St @ Guest St - Stop & Shop,,,,42.356313,-71.141651,,,https://www.mbta.com/stops/11071,,0,,0,Boston,Arthur Street,Guest Street,3.0
211,1109,1109.0,N Beacon St @ Saunders St,,,,42.354115,-71.14151,,,https://www.mbta.com/stops/1109,,0,,1,Boston,North Beacon Street,Saunders Street,3.0
212,111,111.0,Mt Vernon St @ South Point Dr,,,,42.317184000000005,-71.040238,,,https://www.mbta.com/stops/111,,0,,1,Boston,Mount Vernon Street,,3.0
213,1110,1110.0,N Beacon St @ Cambridge St,,,,42.353583,-71.138173,,,https://www.mbta.com/stops/1110,,0,,1,Boston,North Beacon Street,,3.0
214,1111,1111.0,Cambridge St opp Hano St,,,,42.353931,-71.136365,,,https://www.mbta.com/stops/1111,,0,,1,Boston,Cambridge Street,Hano Street,3.0
215,111146,111146.0,Pemberton Point,,,,42.303676,-70.91976600000001,,,https://www.mbta.com/stops/111146,,0,,0,Hull,Main Street,,3.0
216,111152,111152.0,Main St from Pemberton Pnt to Spring St (FLAG),,,,42.303427,-70.91329300000001,,,https://www.mbta.com/stops/111152,,0,,1,Hull,Main Street,Highland Avenue,3.0
217,111159,111159.0,Spring St from Main St to Nantasket Ave (FLAG),,,,42.302958000000004,-70.902498,,,https://www.mbta.com/stops/111159,,0,,0,Hull,Spring Street,Gallop Hill Road,3.0
218,111179,111179.0,Nantasket Ave from Y St to A St (FLAG),,,,42.298619,-70.882178,,,https://www.mbta.com/stops/111179,,0,,1,Hull,Nantasket Avenue,M Street,3.0
219,111196,111196.0,Nantasket Ave from A St to Kenberma St (FLAG),,,,42.287379,-70.876717,,,https://www.mbta.com/stops/111196,,0,,0,Hull,Nantasket Avenue,Coburn Street,3.0
220,1112,1112.0,Cambridge St @ Harvard Ave,,,,42.355252,-71.133178,,,https://www.mbta.com/stops/1112,,0,,1,Boston,Cambridge Street,Wilton Street,3.0
221,111206,111206.0,Nantasket Ave from Kenberma St to Bay St (FLAG),,,,42.279455,-70.869833,,,https://www.mbta.com/stops/111206,,0,,0,Hull,Nantasket Avenue,Nantasket Road,3.0
222,111214,111214.0,Nantasket Ave from Bay St to Wash Blvd (FLAG),,,,42.273140000000005,-70.86018,,,https://www.mbta.com/stops/111214,,0,,1,Hull,Nantasket Avenue,Porazzo Road,3.0
223,111217,111217.0,Nantasket Ave from Wash Blvd to Park Ave (FLAG),,,,42.270703999999995,-70.856877,,,https://www.mbta.com/stops/111217,,0,,1,Hull,Nantasket Avenue,Wharf Avenue,3.0
224,111219,111219.0,Park Ave from Nantasket Ave to Rockland Cir (FLAG),,,,42.267539,-70.8533,,,https://www.mbta.com/stops/111219,,0,,0,Hull,Park Avenue,Rockland Circle,3.0
225,111220,111220.0,Rockland Cir from Park to Rockland House Rd (FLAG),,,,42.266442,-70.853888,,,https://www.mbta.com/stops/111220,,0,,0,Hull,Rockland Circle,,3.0
226,111222,111222.0,Wash Blvd from Rockland House Rd to Med Ctr (FLAG),,,,42.26487,-70.85755,,,https://www.mbta.com/stops/111222,,0,,0,Hull,George Washington Boulevard,,3.0
227,111223,111223.0,Wash Blvd @ Hull Medical Ctr (FLAG),,,,42.263534,-70.85929499999999,,,https://www.mbta.com/stops/111223,,0,,0,Hull,George Washington Boulevard,Barnstable Street,3.0
228,111232,111232.0,Atlantic Ave - Nantasket Ave to School St (FLAG),,,,42.265539000000004,-70.846749,,,https://www.mbta.com/stops/111232,,0,,0,Hull,Atlantic Avenue,Atlantic House Road,3.0
229,111234,111234.0,School St - Atlantic Ave to Nantasket Ave (FLAG),,,,42.264410999999996,-70.84597,,,https://www.mbta.com/stops/111234,,0,,0,Hull,School Street,Atlantic House Road,3.0
230,111236,111236.0,Nantasket Ave from School St to Rockland St (FLAG),,,,42.261534999999995,-70.845016,,,https://www.mbta.com/stops/111236,,0,,0,Hull,Nantasket Avenue,Priscilla Way,3.0
231,111248,111248.0,Summer St from Rockland St to Cushing Way (FLAG),,,,42.247716,-70.876317,,,https://www.mbta.com/stops/111248,,0,,0,Hingham,Summer Street,Button Cove Road,3.0
232,111251,111251.0,Summer St from Cushing Way to Water St (FLAG),,,,42.245686,-70.882913,,,https://www.mbta.com/stops/111251,,0,,0,Hingham,Summer Street,Water Street,3.0
233,111258,111258.0,Summer St from Water St to Cushing Way (FLAG),,,,42.245593,-70.88266800000001,,,https://www.mbta.com/stops/111258,,0,,0,Hingham,Summer Street,,3.0
234,1113,1113.0,Cambridge St @ Linden St,,,,42.355942999999996,-71.13144799999999,,,https://www.mbta.com/stops/1113,,0,,1,Boston,Cambridge Street,Linden Street,3.0
235,11131,11131.0,Centre St @ Roseway St,,,,42.318993,-71.111932,,,https://www.mbta.com/stops/11131,,0,,0,Boston,Centre Street,Roseway,3.0
236,1114,1114.0,Cambridge St @ N Harvard St,,,,42.357758000000004,-71.12650500000001,,,https://www.mbta.com/stops/1114,,0,,0,Boston,Cambridge Street,North Harvard Street,3.0
237,11148,11148.0,Malcolm X Blvd @ Madison Park HS,,,,42.331221,-71.090588,,,https://www.mbta.com/stops/11148,,0,,1,Boston,Malcolm X Blvd,King Street,3.0
238,11149,11149.0,Malcolm X Blvd @ O'Bryant HS,,,,42.330732,-71.08842,,,https://www.mbta.com/stops/11149,,0,,1,Boston,Malcolm X Blvd,Roxbury Street,3.0
239,1115,1115.0,Cambridge St @ Seattle St,,,,42.358658,-71.12396700000001,,,https://www.mbta.com/stops/1115,,0,,0,Boston,Cambridge Street,Windom Street,3.0
240,11158,11158.0,Harrison Ave @ E Brookline St,,,,42.338392999999996,-71.07091700000001,,,https://www.mbta.com/stops/11158,,0,,1,Boston,Harrison Avenue,East Brookline Street,3.0
241,1116,1116.0,Cambridge St @ Mass Pike Exit,,,,42.360640000000004,-71.118544,,,https://www.mbta.com/stops/1116,,0,,2,Boston,Cambridge Street,Ramp - Western Ave To Soldiers Field Rd Eastbound,3.0
242,11164,11164.0,Centre St @ Burroughs St,,,,42.311465999999996,-71.1145,,,https://www.mbta.com/stops/11164,,0,,0,Boston,Centre Street,Burroughs Street,3.0
243,111640,111640.0,"Cobbs Corner, Canton",,,,42.13982,-71.148314,,,https://www.mbta.com/stops/111640,,0,,0,Canton,,,3.0
244,111642,111642.0,Washington St from Cobbs Corner to High St (FLAG),,,,42.144333,-71.149085,,,https://www.mbta.com/stops/111642,,0,,0,Canton,Washington Street,Kinsley Place,3.0
245,111648,111648.0,Washington St from High St to Church St (FLAG),,,,42.150599,-71.149245,,,https://www.mbta.com/stops/111648,,0,,0,Canton,Washington Street,Capen Place,3.0
246,111653,111653.0,Washington St - Church St to Canton Ctr Sta (FLAG),,,,42.154215,-71.145689,,,https://www.mbta.com/stops/111653,,0,,0,Canton,Washington Street,Forge Pond,3.0
247,111656,111656.0,Washington St opp Canton Center Station,,,,42.156617,-71.145462,,,https://www.mbta.com/stops/111656,,0,,0,Canton,Washington Street,,3.0
248,111660,111660.0,Washington St - Canton Ctr Sta to Pequit St (FLAG),,,,42.158794,-71.144918,,,https://www.mbta.com/stops/111660,,0,,0,Canton,Washington Street,Sherman Street,3.0
249,111672,111672.0,Washington St - Chapman St to Pleasant St (FLAG),,,,42.172307,-71.139199,,,https://www.mbta.com/stops/111672,,0,,0,Canton,Washington Street,Draper Street,3.0
250,111685,111685.0,Washington St - Pecunit St to Turnpike St (FLAG),,,,42.185813,-71.121815,,,https://www.mbta.com/stops/111685,,0,,0,Canton,Washington Street,Adrienne Drive,3.0
251,1117,1117.0,Putnam Ave @ Allston St,,,,42.361709999999995,-71.11353199999999,,,https://www.mbta.com/stops/1117,,0,,0,Cambridge,Putnam Avenue,Allston Street,3.0
252,111711,111711.0,Blue Hill Ave - Barbara Ln to Valentine Rd (FLAG),,,,42.250044,-71.102039,,,https://www.mbta.com/stops/111711,,0,,0,Milton,Blue Hill Avenue,Craig Street,3.0
253,111720,111720.0,Blue Hill Ave - Valentine Rd to Tucker St (FLAG),,,,42.25629,-71.098789,,,https://www.mbta.com/stops/111720,,0,,0,Milton,Blue Hill Avenue,Hudson Street,3.0
254,111729,111729.0,Blue Hill Ave - Tucker St to Brush Hill Rd (FLAG),,,,42.262627,-71.09550300000001,,,https://www.mbta.com/stops/111729,,0,,0,Milton,Blue Hill Avenue,Austin Street,3.0
255,111738,111738.0,Blue Hill Ave - Brush Hill Rd to Tucker St (FLAG),,,,42.262865999999995,-71.095677,,,https://www.mbta.com/stops/111738,,0,,0,Milton,Blue Hill Avenue,Austin Street,3.0
256,111747,111747.0,Blue Hill Ave - Tucker St to Valentine Rd (FLAG),,,,42.256642,-71.098896,,,https://www.mbta.com/stops/111747,,0,,0,Milton,Blue Hill Avenue,Amor Road,3.0
257,111762,111762.0,Blue Hill Ave from Barbara Ln to Curry Coll (FLAG),,,,42.239391,-71.10850500000001,,,https://www.mbta.com/stops/111762,,0,,2,Milton,Blue Hill Avenue,Bradlee Road,3.0
258,111775,111775.0,Washington St from Royall St to Turnpike St (FLAG),,,,42.197154,-71.119299,,,https://www.mbta.com/stops/111775,,0,,0,Canton,Washington Street,,3.0
259,111787,111787.0,Washington St - Pecunit St to Pleasant St (FLAG),,,,42.176598,-71.13143000000001,,,https://www.mbta.com/stops/111787,,0,,0,Canton,Washington Street,,3.0
260,111791,111791.0,Washington St - Pleasant St to Chapman St (FLAG),,,,42.172526,-71.139085,,,https://www.mbta.com/stops/111791,,0,,0,Canton,Washington Street,Draper Street,3.0
261,111796,111796.0,Washington St from Chapman St to Lewis St (FLAG),,,,42.165614,-71.142813,,,https://www.mbta.com/stops/111796,,0,,0,Canton,Washington Street,Wildwood Drive,3.0
262,1118,1118.0,Magazine St @ Putnam Ave,,,,42.359196000000004,-71.11089,,,https://www.mbta.com/stops/1118,,0,,0,Cambridge,Magazine Street,Bailey Place,3.0
263,111801,111801.0,Washington St - Lewis St to Canton Ctr sta (FLAG),,,,42.159019,-71.14500600000001,,,https://www.mbta.com/stops/111801,,0,,0,Canton,Washington Street,Sherman Street,3.0
264,111803,111803.0,Washington St @ Canton Center Station,,,,42.156684999999996,-71.145661,,,https://www.mbta.com/stops/111803,,0,,0,Canton,Washington Street,Centre Street,3.0
265,111806,111806.0,Washington St - Canton Ctr Sta to Church St (FLAG),,,,42.154326,-71.145862,,,https://www.mbta.com/stops/111806,,0,,1,Canton,Washington Street,Forge Pond,3.0
266,111810,111810.0,Washington St from Church St to High St (FLAG),,,,42.150784,-71.149384,,,https://www.mbta.com/stops/111810,,0,,0,Canton,Washington Street,Capen Place,3.0
267,111815,111815.0,Washington St from High St to Cobbs Corner (FLAG),,,,42.14423,-71.149281,,,https://www.mbta.com/stops/111815,,0,,0,Canton,Washington Street,Kinsley Place,3.0
268,111823,111823.0,Rockland St from Kilby St to Nantasket Ave (FLAG),,,,42.255328999999996,-70.851812,,,https://www.mbta.com/stops/111823,,0,,0,Hingham,Rockland Street,,3.0
269,111828,111828.0,School St - Nantasket Ave to Atlantic Ave (FLAG),,,,42.264125,-70.845936,,,https://www.mbta.com/stops/111828,,0,,0,Hull,School Street,Atlantic House Road,3.0
270,111830,111830.0,Atlantic Ave - School St to Nantasket Ave (FLAG),,,,42.265653,-70.84662,,,https://www.mbta.com/stops/111830,,0,,0,Hull,Atlantic Avenue,Atlantic House Road,3.0
271,111842,111842.0,Rockland Circle from Rockland House to Park (FLAG),,,,42.266352000000005,-70.85377700000001,,,https://www.mbta.com/stops/111842,,0,,0,Hull,Rockland Circle,,3.0
272,111844,111844.0,Nantasket Ave from Park Ave to Wash Blvd (FLAG),,,,42.270665,-70.856588,,,https://www.mbta.com/stops/111844,,0,,1,Hull,Nantasket Avenue,Wharf Avenue,3.0
273,111848,111848.0,Nantasket Ave from Wash Blvd to Water St (FLAG),,,,42.274431,-70.860687,,,https://www.mbta.com/stops/111848,,0,,1,Hull,Nantasket Avenue,Water Street,3.0
274,111855,111855.0,Nantasket Ave from Water St to Kenberma St (FLAG),,,,42.279496,-70.869545,,,https://www.mbta.com/stops/111855,,0,,0,Hull,Nantasket Avenue,Nantasket Road,3.0
275,111864,111864.0,Nantasket Ave from Kenburma St to A St (FLAG),,,,42.287264,-70.876468,,,https://www.mbta.com/stops/111864,,0,,0,Hull,Nantasket Avenue,Coburn Street,3.0
276,11187,11187.0,Washington St @ School St,,,,42.314696999999995,-71.099462,,,https://www.mbta.com/stops/11187,,0,,1,Boston,Washington Street,School Street,3.0
277,111881,111881.0,Nantasket Ave from A St to Y St (FLAG),,,,42.29848,-70.881953,,,https://www.mbta.com/stops/111881,,0,,0,Hull,Nantasket Avenue,M Street,3.0
278,111895,111895.0,Nantasket Ave from Y St to Spring St (FLAG),,,,42.308765,-70.889696,,,https://www.mbta.com/stops/111895,,0,,0,Hull,Nantasket Avenue,Point Allerton Avenue,3.0
279,1119,1119.0,Magazine St @ Erie St,,,,42.360978,-71.10891099999999,,,https://www.mbta.com/stops/1119,,0,,1,Cambridge,Magazine Street,Erie Street,3.0
280,111907,111907.0,Main St from Spring St to Pemberton Pnt (FLAG),,,,42.303557,-70.913072,,,https://www.mbta.com/stops/111907,,0,,0,Hull,Main Street,Highland Avenue,3.0
281,111997,111997.0,Highland Ave @ Doonan St (FLAG),,,,42.438144,-71.088598,,,https://www.mbta.com/stops/111997,,0,,0,Medford,Highland Avenue,Doonan Street,3.0
282,1120,1120.0,Magazine St @ McTernan St,,,,42.361487,-71.108368,,,https://www.mbta.com/stops/1120,,0,,1,Cambridge,Magazine Street,McTernan Street,3.0
283,112011,112011.0,Fulton St from Molyneaux Cir to Foss St (FLAG),,,,42.436137,-71.095822,,,https://www.mbta.com/stops/112011,,0,,0,Medford,Fulton Street,,3.0
284,112019,112019.0,Fulton St from Foss St to Fellsway (FLAG),,,,42.428728,-71.09895300000001,,,https://www.mbta.com/stops/112019,,0,,0,Medford,Fulton Street,Fulton Spring Road,3.0
285,112029,112029.0,Webster St from Fulton St to Forest St (FLAG),,,,42.422587,-71.104079,,,https://www.mbta.com/stops/112029,,0,,0,Medford,Webster Street,Brookside Parkway,3.0
286,112037,112037.0,Lawrence Memorial Hospital,,,,42.426217,-71.11079699999999,,,https://www.mbta.com/stops/112037,,0,,1,Medford,,,3.0
287,112046,112046.0,Forest St from Webster St to Medford Sq (FLAG),,,,42.420895,-71.108275,,,https://www.mbta.com/stops/112046,,0,,1,Medford,Forest Street,Hall Avenue,3.0
288,112068,112068.0,Medford Stop & Shop,,,,42.408806,-71.086469,,,https://www.mbta.com/stops/112068,,0,,0,Medford,,,3.0
289,112094,112094.0,Forest St from Medford Sq to Webster St (FLAG),,,,42.421015999999995,-71.10801500000001,,,https://www.mbta.com/stops/112094,,0,,0,Medford,Forest Street,Hall Avenue,3.0
290,1121,1121.0,Magazine St @ Perry St,,,,42.362343,-71.107445,,,https://www.mbta.com/stops/1121,,0,,1,Cambridge,Magazine Street,Perry Street,3.0
291,112112,112112.0,Webster St from Forest St to Fulton St (FLAG),,,,42.422467,-71.104055,,,https://www.mbta.com/stops/112112,,0,,0,Medford,Webster Street,Brookside Parkway,3.0
292,112113,112113.0,Fulton St from Fellsway to Webster St (FLAG),,,,42.424507,-71.102063,,,https://www.mbta.com/stops/112113,,0,,0,Medford,Fulton Street,Rockwood Terrace,3.0
293,112116,112116.0,Fulton St from Webster St to Fellsway (FLAG),,,,42.424483,-71.101895,,,https://www.mbta.com/stops/112116,,0,,0,Medford,Fulton Street,Rockwood Terrace,3.0
294,112121,112121.0,Fulton St from Fellsway to Foss St (FLAG),,,,42.428684000000004,-71.098715,,,https://www.mbta.com/stops/112121,,0,,0,Medford,Fulton Street,Fulton Spring Road,3.0
295,112129,112129.0,Fulton St from Foss St to Molyneaux Cir (FLAG),,,,42.436059,-71.095679,,,https://www.mbta.com/stops/112129,,0,,0,Medford,Fulton Street,,3.0
296,112131,112131.0,Lawrence Rd from Forest St to Hospital (FLAG),,,,42.424894,-71.107674,,,https://www.mbta.com/stops/112131,,0,,1,Medford,Lawrence Road,Clifton Street,3.0
297,11219,11219.0,A St @ Necco St,,,,42.348062,-71.050338,,,https://www.mbta.com/stops/11219,,0,,1,Boston,A Street,Piers Way,3.0
298,112196,112196.0,Lawrence Rd from Hospital to Forest St (FLAG),,,,42.424788,-71.107881,,,https://www.mbta.com/stops/112196,,0,,1,Medford,Lawrence Road,Clifton Street,3.0
299,1122,1122.0,Magazine St @ Auburn St,,,,42.363868,-71.105733,,,https://www.mbta.com/stops/1122,,0,,1,Cambridge,Magazine Street,Auburn Street,3.0
300,11228,11228.0,Tremont St @ Lenox St,,,,42.337782000000004,-71.083038,,,https://www.mbta.com/stops/11228,,0,,0,Boston,Tremont Street,,3.0
301,1123,1123.0,Green St @ Magazine St,,,,42.364934999999996,-71.104405,,,https://www.mbta.com/stops/1123,,0,,1,Cambridge,Green Street,Magazine Street,3.0
302,11241,11241.0,South Bay Mall @ Target,,,,42.329919,-71.06178299999999,,,https://www.mbta.com/stops/11241,,0,,2,Boston,,,3.0
303,11242,11242.0,South Bay Mall @ Office Max,,,,42.327477,-71.061819,,,https://www.mbta.com/stops/11242,,0,,1,Boston,,,3.0
304,11244,11244.0,South Bay Mall @ Allstate Rd,,,,42.326245,-71.062585,,,https://www.mbta.com/stops/11244,,0,,0,Boston,,,3.0
305,11245,11245.0,Tremont St @ Berkeley St,,,,42.345465999999995,-71.0698,,,https://www.mbta.com/stops/11245,,0,,1,Boston,Tremont Street,,3.0
306,11257,11257.0,Malcolm X Blvd @ King St,,,,42.331196999999996,-71.092692,,,https://www.mbta.com/stops/11257,,0,,1,Boston,Malcolm X Blvd,King Street,3.0
307,11259,11259.0,Malcolm X Blvd @ Shawmut Ave,,,,42.329483,-71.086203,,,https://www.mbta.com/stops/11259,,0,,0,Boston,Malcolm X Blvd,Shawmut Avenue,3.0
308,1128,1128.0,South St @ Sedgwick St,,,,42.308588,-71.115487,,,https://www.mbta.com/stops/1128,,0,,0,Boston,South Street,Bardwell Street,3.0
309,1129,1129.0,Centre St @ Seaverns Ave,,,,42.312197999999995,-71.114144,,,https://www.mbta.com/stops/1129,,0,,1,Boston,Centre Street,Seaverns Avenue,3.0
310,113,113.0,Portland St @ Causeway St,,,,42.364737,-71.062198,,,https://www.mbta.com/stops/113,,0,,1,Boston,Portland Street,Causeway Street,3.0
311,1130,1130.0,Centre St @ Saint John St,,,,42.314197,-71.114036,,,https://www.mbta.com/stops/1130,,0,,0,Boston,Centre Street,Grovenor Road,3.0
312,11302,11302.0,Harvard St @ Verndale St,,,,42.348388,-71.12953900000001,,,https://www.mbta.com/stops/11302,,0,,1,Brookline,Harvard Street,Verndale Street,3.0
313,11319,11319.0,W Second St opp W Third St,,,,42.343047,-71.055038,,,https://www.mbta.com/stops/11319,,0,,1,Boston,West Second Street,West Third Street,3.0
314,1132,1132.0,Centre St @ Robinwood Ave,,,,42.316951,-71.11336800000001,,,https://www.mbta.com/stops/1132,,0,,1,Boston,Centre Street,Robinwood Avenue,3.0
315,11323,11323.0,Malcolm X Blvd opp O'Bryant HS,,,,42.330801,-71.089207,,,https://www.mbta.com/stops/11323,,0,,1,Boston,Malcolm X Blvd,Roxbury Street,3.0
316,1134,1134.0,Centre St @ Paul Gore St,,,,42.321048,-71.110438,,,https://www.mbta.com/stops/1134,,0,,1,Boston,Centre Street,Barbara Street,3.0
317,1135,1135.0,Centre St @ Sheridan St,,,,42.322164,-71.10904000000001,,,https://www.mbta.com/stops/1135,,0,,1,Boston,Centre Street,Sheridan Street,3.0
318,1136,1136.0,Centre St @ Wyman St,,,,42.3225,-71.10677199999999,,,https://www.mbta.com/stops/1136,,0,,1,Boston,Centre Street,Wyman Street,3.0
319,1137,1137.0,Centre St @ Mozart St,,,,42.322684,-71.104662,,,https://www.mbta.com/stops/1137,,0,,1,Boston,Centre Street,Mozart Street,3.0
320,1138,1138.0,Centre St @ Estrella St,,,,42.322886,-71.102796,,,https://www.mbta.com/stops/1138,,0,,1,Boston,Centre Street,Estrella Street,3.0
321,11384,11384.0,Dartmouth St @ Back Bay Sta,,,,42.347346,-71.075956,,,https://www.mbta.com/stops/11384,,0,,1,Boston,Dartmouth Street,Stuart Street,3.0
322,11388,11388.0,Huntington Ave @ Belvidere St,,,,42.345344,-71.082045,,,https://www.mbta.com/stops/11388,,0,,0,Boston,Huntington Avenue,Belvidere Street,3.0
323,11390,11390.0,Dalton St @ Boylston St,,,,42.347778999999996,-71.085476,,,https://www.mbta.com/stops/11390,,0,,1,Boston,Dalton Street,Boylston Street,3.0
324,11391,11391.0,Boylston St @ Massachusetts Ave,,,,42.347386,-71.08749499999999,,,https://www.mbta.com/stops/11391,,0,,1,Boston,Boylston Street,Massachusetts Avenue,3.0
325,114,114.0,Causeway St @ North Station,,,,42.365747999999996,-71.060867,,,https://www.mbta.com/stops/114,,0,,1,Boston,Causeway Street,Fleet Center Way,3.0
326,1140,1140.0,Centre St @ Highland St,,,,42.324791,-71.097571,,,https://www.mbta.com/stops/1140,,0,,1,Boston,Centre Street,Highland Street,3.0
327,1141,1141.0,Centre St @ Marcella St,,,,42.326102,-71.09653399999999,,,https://www.mbta.com/stops/1141,,0,,1,Boston,Centre Street,New Heath Street,3.0
328,11410,11410.0,Cambridge St @ Max Ave,,,,42.371928000000004,-71.087532,,,https://www.mbta.com/stops/11410,,0,,0,Cambridge,Cambridge Street,Max Avenue,3.0
329,11413,11413.0,Columbus Ave @ Walnut Ave,,,,42.313283,-71.095326,,,https://www.mbta.com/stops/11413,,0,,0,Boston,Columbus Avenue,Walnut Avenue,3.0
330,11419,11419.0,A St @ Mt Washington Ave,,,,42.34644,-71.051618,,,https://www.mbta.com/stops/11419,,0,,1,Boston,A Street,Mount Washington Avenue,3.0
331,1142,1142.0,Centre St @ Cedar St,,,,42.327778,-71.095518,,,https://www.mbta.com/stops/1142,,0,,0,Boston,Centre Street,Fort Avenue,3.0
332,1143,1143.0,Centre St @ Linwood St,,,,42.328697,-71.094921,,,https://www.mbta.com/stops/1143,,0,,1,Boston,Centre Street,,3.0
333,1144,1144.0,Centre St @ Highland Ave,,,,42.329657,-71.093032,,,https://www.mbta.com/stops/1144,,0,,1,Boston,Centre Street,Highland Avenue,3.0
334,1145,1145.0,42A John Eliot Sq,,,,42.329752,-71.090903,,,https://www.mbta.com/stops/1145,,0,,1,Boston,Dudley Street,,3.0
335,1146,1146.0,42 Dudley St,,,,42.329314000000004,-71.088302,,,https://www.mbta.com/stops/1146,,0,,0,Boston,Dudley Street,Kenilworth Street,3.0
336,1147,1147.0,Dudley St @ Shawmut Ave,,,,42.328969,-71.086206,,,https://www.mbta.com/stops/1147,,0,,0,Boston,Dudley Street,Shawmut Avenue,3.0
337,1148,1148.0,Malcolm X Blvd @ Shawmut Ave,,,,42.329687,-71.08613000000001,,,https://www.mbta.com/stops/1148,,0,,0,Boston,Malcolm X Blvd,Shawmut Avenue,3.0
338,11481,11481.0,Herald St @ Harrison Ave,,,,42.346301000000004,-71.063361,,,https://www.mbta.com/stops/11481,,0,,1,Boston,Herald Street,Harrison Avenue,3.0
339,11482,11482.0,Dudley St @ Uphams Corner Station,,,,42.318783,-71.069142,,,https://www.mbta.com/stops/11482,,0,,1,Boston,Dudley Street,Clifton Street,3.0
340,114878,114878.0,Nantasket Ave from Atlantic Ave to Park Ave (FLAG),,,,42.267545,-70.85140799999999,,,https://www.mbta.com/stops/114878,,0,,1,Hull,Nantasket Avenue,Atherton Road,3.0
341,114882,114882.0,Nantasket Ave from Park Ave to Atlantic Ave (FLAG),,,,42.267524,-70.851699,,,https://www.mbta.com/stops/114882,,0,,1,Hull,Nantasket Avenue,Atherton Road,3.0
342,114886,114886.0,Wash Blvd from Rockland St to Hull Med Ctr (FLAG),,,,42.260866,-70.86224399999999,,,https://www.mbta.com/stops/114886,,0,,1,Hull,George Washington Boulevard,Gosnold Street,3.0
343,114887,114887.0,Wash Blvd Opp Hull Medical Ctr (FLAG),,,,42.263218,-70.85947900000001,,,https://www.mbta.com/stops/114887,,0,,0,Hull,George Washington Boulevard,Logan Avenue,3.0
344,114888,114888.0,Wash Blvd - Rockland House Rd to Nantasket Ave,,,,42.270226,-70.857124,,,https://www.mbta.com/stops/114888,,0,,0,Hull,George Washington Boulevard,Wharf Avenue,3.0
345,114893,114893.0,Wash Blvd - Nantasket Ave to Rockland House Rd,,,,42.270275,-70.85740899999999,,,https://www.mbta.com/stops/114893,,0,,1,Hull,George Washington Boulevard,Wharf Avenue,3.0
346,114895,114895.0,Hull Medical Center (FLAG),,,,42.263216,-70.859976,,,https://www.mbta.com/stops/114895,,0,,2,Hull,,,3.0
347,114896,114896.0,Wash Blvd from Hull Med Ctr to Rockland St (FLAG),,,,42.26108,-70.86225400000001,,,https://www.mbta.com/stops/114896,,0,,0,Hull,George Washington Boulevard,Gosnold Street,3.0
348,1149,1149.0,205 Roxbury St,,,,42.330096000000005,-71.09134300000001,,,https://www.mbta.com/stops/1149,,0,,1,Boston,Roxbury Street,Centre Street,3.0
349,1150,1150.0,Centre St @ Gardner St,,,,42.329386,-71.094099,,,https://www.mbta.com/stops/1150,,0,,1,Boston,Centre Street,Gardner Street,3.0
350,11501,11501.0,Dudley St @ Virginia St,,,,42.317585,-71.066499,,,https://www.mbta.com/stops/11501,,0,,1,Boston,Dudley Street,Phillips Place,3.0
351,1151,1151.0,Centre St @ Cedar St,,,,42.327548,-71.095812,,,https://www.mbta.com/stops/1151,,0,,1,Boston,Centre Street,Fort Avenue,3.0
352,11512,11512.0,Bowdoin opp Mt Ida,,,,42.307218,-71.066004,,,https://www.mbta.com/stops/11512,,0,,1,Boston,Bowdoin Street,Mount Ida Road,3.0
353,1152,1152.0,Centre St @ New Heath St,,,,42.326053,-71.096665,,,https://www.mbta.com/stops/1152,,0,,1,Boston,Centre Street,New Heath Street,3.0
354,11521,11521.0,Morton St @ Arborway,,,,42.300388,-71.10663199999999,,,https://www.mbta.com/stops/11521,,0,,0,Boston,Morton Street,Arborway,3.0
355,11522,11522.0,Morton St @ Circuit Dr,,,,42.300643,-71.10635500000001,,,https://www.mbta.com/stops/11522,,0,,0,Boston,Morton Street,Arborway,3.0
356,1153,1153.0,Centre St @ Columbus Ave,,,,42.325007,-71.097421,,,https://www.mbta.com/stops/1153,,0,,0,Boston,Centre Street,Highland Street,3.0
357,1154,1154.0,Heath St @ Bromley St,,,,42.325365999999995,-71.099579,,,https://www.mbta.com/stops/1154,,0,,0,Boston,Heath Street,Bromley Street,3.0
358,11545,11545.0,Lee St @ Boylston St,,,,42.325809,-71.140476,,,https://www.mbta.com/stops/11545,,0,,0,Brookline,Lee Street,Lee Street Extension,3.0
359,1155,1155.0,Centre St @ Bickford St,,,,42.32295,-71.102275,,,https://www.mbta.com/stops/1155,,0,,0,Boston,Centre Street,Bickford Street,3.0
360,1156,1156.0,Centre St @ Sunnyside St,,,,42.322676,-71.105716,,,https://www.mbta.com/stops/1156,,0,,1,Boston,Centre Street,Sunnyside Street,3.0
361,1158,1158.0,Centre St @ Creighton St,,,,42.322368,-71.108661,,,https://www.mbta.com/stops/1158,,0,,1,Boston,Centre Street,Forbes Street,3.0
362,11587,11587.0,Circuit Dr @ Glen Ln,,,,42.305236,-71.094725,,,https://www.mbta.com/stops/11587,,0,,2,Boston,Jewish War Veterans Drive,Pierpoint Road,3.0
363,1159,1159.0,Centre St @ Barbara St,,,,42.321093,-71.11054399999999,,,https://www.mbta.com/stops/1159,,0,,1,Boston,Centre Street,Barbara Street,3.0
364,11592,11592.0,Ruggles St @ Cabot St,,,,42.333861999999996,-71.08717299999999,,,https://www.mbta.com/stops/11592,,0,,0,Boston,Ruggles Street,Cabot Street,3.0
365,11593,11593.0,Ruggles St opp Kerr Way,,,,42.333186,-71.086016,,,https://www.mbta.com/stops/11593,,0,,1,Boston,Ruggles Street,Kerr Place,3.0
366,11599,11599.0,Seaport Blvd @ Sleeper St,,,,42.352775,-71.04741899999999,,,https://www.mbta.com/stops/11599,,0,,0,Boston,Seaport Boulevard,Thompson Place,3.0
367,1160,1160.0,S Huntington Ave @ Moraine St,,,,42.319618,-71.111729,,,https://www.mbta.com/stops/1160,,0,,0,Boston,South Huntington Avenue,Moraine Street,3.0
368,11609,11609.0,Centre St @ S Huntington Ave,,,,42.320085999999996,-71.111338,,,https://www.mbta.com/stops/11609,,0,,1,Boston,Centre Street,Oakview Terrace,3.0
369,1161,1161.0,Centre St @ Lochstead Ave,,,,42.317365,-71.113229,,,https://www.mbta.com/stops/1161,,0,,1,Boston,Centre Street,Goldsmith Place,3.0
370,11613,11613.0,W Boundary Rd @ Washington St,,,,42.267432,-71.149989,,,https://www.mbta.com/stops/11613,,0,,0,Boston,West Boundary Road,Washington Street,3.0
371,11618,11618.0,Georgetowne Dr @ Georgetowne Pl,,,,42.25564,-71.143709,,,https://www.mbta.com/stops/11618,,0,,0,Boston,Georgetowne Drive,,3.0
372,1164,1164.0,Centre St @ Myrtle St,,,,42.313306,-71.11416,,,https://www.mbta.com/stops/1164,,0,,1,Boston,Centre Street,Myrtle Street,3.0
373,1165,1165.0,Washington St @ W Walnut Pk,,,,42.316446,-71.097563,,,https://www.mbta.com/stops/1165,,0,,0,Boston,Washington Street,West Walnut Park,3.0
374,1166,1166.0,Washington St @ Cobden St,,,,42.317578999999995,-71.09644899999999,,,https://www.mbta.com/stops/1166,,0,,1,Boston,Washington Street,Cobden Street,3.0
375,1167,1167.0,Washington St opp Dimock St,,,,42.318899,-71.095139,,,https://www.mbta.com/stops/1167,,0,,1,Boston,Washington Street,Dimock Street,3.0
376,11673,11673.0,209 Cambridge St,,,,42.452996999999996,-71.15795,,,https://www.mbta.com/stops/11673,,0,,0,Winchester,Cambridge Street,Wildwood Street,3.0
377,1168,1168.0,Washington St @ Townsend St,,,,42.319958,-71.09406700000001,,,https://www.mbta.com/stops/1168,,0,,1,Boston,Washington Street,Townsend Street,3.0
378,11689,11689.0,Burlington Mall Rd opp NE Executive Pk,,,,42.485919,-71.21172800000001,,,https://www.mbta.com/stops/11689,,0,,0,Burlington,Burlington Mall Road,Lexington Street,3.0
379,1169,1169.0,Washington St @ Brinton St,,,,42.320828999999996,-71.092974,,,https://www.mbta.com/stops/1169,,0,,1,Boston,Washington Street,Marcella Street,3.0
380,11694,11694.0,S Bedford St @ Wayside Rd,,,,42.484199,-71.19492,,,https://www.mbta.com/stops/11694,,0,,0,Burlington,South Bedford Street,Wayside Road,3.0
381,117,117.0,Congress St @ Haymarket Sta,,,,42.361847,-71.057724,,,https://www.mbta.com/stops/117,,0,,1,Boston,Congress Street,Hanover Street,3.0
382,1170,1170.0,Washington St @ ML King Blvd,,,,42.321749,-71.091752,,,https://www.mbta.com/stops/1170,,0,,0,Boston,Washington Street,Martin Luther King Boulevard,3.0
383,11712,11712.0,Blue Hill Ave @ Morton St,,,,42.284143,-71.091674,,,https://www.mbta.com/stops/11712,,0,,0,Boston,Blue Hill Avenue,Morton Street,3.0
384,11719,11719.0,Blue Hill Ave opp Babson St,,,,42.270168,-71.093907,,,https://www.mbta.com/stops/11719,,0,,1,Boston,Blue Hill Avenue,Babson Street,3.0
385,1172,1172.0,Washington St @ Dale St,,,,42.323294,-71.089573,,,https://www.mbta.com/stops/1172,,0,,1,Boston,Washington Street,Oakland Street,3.0
386,1173,1173.0,Washington St opp Cedar St,,,,42.324102,-71.088808,,,https://www.mbta.com/stops/1173,,0,,0,Boston,Washington Street,Cedar Street,3.0
387,11735,11735.0,Ames St @ Franklin Field,,,,42.290104,-71.082689,,,https://www.mbta.com/stops/11735,,0,,0,Boston,Ames Street,Stratton Street,3.0
388,11736,11736.0,Ames St @ Westview St,,,,42.290612,-71.086389,,,https://www.mbta.com/stops/11736,,0,,0,Boston,Ames Street,Westview Street,3.0
389,1174,1174.0,Washington St @ Circuit Terr,,,,42.325827000000004,-71.087772,,,https://www.mbta.com/stops/1174,,0,,1,Boston,Washington Street,Circuit Street,3.0
390,1175,1175.0,Washington St @ St James St,,,,42.327276,-71.087149,,,https://www.mbta.com/stops/1175,,0,,1,Boston,Washington Street,Saint James Street,3.0
391,11767,11767.0,Pearl St @ Putnam Ave,,,,42.358164,-71.109771,,,https://www.mbta.com/stops/11767,,0,,0,Cambridge,Pearl Street,Putnam Avenue,3.0
392,11771,11771.0,Vassar St @ Massachusetts Ave,,,,42.36023,-71.094815,,,https://www.mbta.com/stops/11771,,0,,0,Cambridge,Vassar Street,Massachusetts Avenue,3.0
393,1178,1178.0,Washington St @ Bartlett St,,,,42.327638,-71.087124,,,https://www.mbta.com/stops/1178,,0,,1,Boston,Washington Street,Bartlett Street,3.0
394,11780,11780.0,Ave Louis Pasteur @ Longwood Ave,,,,42.337969,-71.102457,,,https://www.mbta.com/stops/11780,,0,,1,Boston,Avenue Louis Pasteur,,3.0
395,11781,11781.0,Ave Louis Pasteur @ The Fenway,,,,42.340233000000005,-71.10083900000001,,,https://www.mbta.com/stops/11781,,0,,1,Boston,Avenue Louis Pasteur,Fenway,3.0
396,1179,1179.0,Washington St @ Guild St,,,,42.326035,-71.087812,,,https://www.mbta.com/stops/1179,,0,,0,Boston,Washington Street,Guild Street,3.0
397,11792,11792.0,Harrison Ave @ Melnea Cass Blvd,,,,42.332146,-71.079293,,,https://www.mbta.com/stops/11792,,0,,1,Boston,Harrison Avenue,Melnea Cass Boulevard,3.0
398,11799,11799.0,Ave Louis Pasteur @ The Fenway,,,,42.340274,-71.10097900000001,,,https://www.mbta.com/stops/11799,,0,,0,Boston,Avenue Louis Pasteur,Fenway,3.0
399,118,118.0,Causeway St @ Medford St,,,,42.366283,-71.05949100000001,,,https://www.mbta.com/stops/118,,0,,0,Boston,Causeway Street,Medford Street,3.0
400,1180,1180.0,Washington St @ Cedar St,,,,42.324307,-71.088773,,,https://www.mbta.com/stops/1180,,0,,1,Boston,Washington Street,Cedar Street,3.0
401,11802,11802.0,Ave Louis Pasteur @ Longwood Ave,,,,42.338473,-71.102334,,,https://www.mbta.com/stops/11802,,0,,1,Boston,Avenue Louis Pasteur,,3.0
402,11803,11803.0,Longwood Ave @ Binney St,,,,42.338207000000004,-71.105846,,,https://www.mbta.com/stops/11803,,0,,1,Boston,Longwood Avenue,Binney Street,3.0
403,11809,11809.0,Mountfort St @ Carlton St,,,,42.348846,-71.108581,,,https://www.mbta.com/stops/11809,,0,,0,Brookline,Mountfort Street,Carlton Street,3.0
404,1181,1181.0,Washington St @ Oakland St,,,,42.323462,-71.0896,,,https://www.mbta.com/stops/1181,,0,,1,Boston,Washington Street,Oakland Street,3.0
405,1182,1182.0,Washington St @ Valentine St,,,,42.321771999999996,-71.091899,,,https://www.mbta.com/stops/1182,,0,,0,Boston,Washington Street,Martin Luther King Boulevard,3.0
406,1183,1183.0,Washington St @ Marcella St,,,,42.320851,-71.093122,,,https://www.mbta.com/stops/1183,,0,,1,Boston,Washington Street,Marcella Street,3.0
407,11835,11835.0,Chestnut Hill Ave opp Buckminster Rd,,,,42.332315,-71.146793,,,https://www.mbta.com/stops/11835,,0,,0,Brookline,Chestnut Hill Avenue,Buckminster Road,3.0
408,11836,11836.0,145 Grove St opp Bellingham Rd,,,,42.304466999999995,-71.15010500000001,,,https://www.mbta.com/stops/11836,,0,,0,Brookline,Grove Street,Bellingham Road,3.0
409,11837,11837.0,Grove St @ South St,,,,42.302638,-71.152249,,,https://www.mbta.com/stops/11837,,0,,0,Brookline,Grove Street,Walnut Hill Road,3.0
410,11839,11839.0,Corey St @ LaGrange St,,,,42.300385999999996,-71.169857,,,https://www.mbta.com/stops/11839,,0,,2,Boston,Corey Street,,3.0
411,1184,1184.0,Washington St opp Townsend St,,,,42.320155,-71.09400600000001,,,https://www.mbta.com/stops/1184,,0,,0,Boston,Washington Street,Townsend Street,3.0
412,11845,11845.0,Chestnut Hill Ave @ Ackers Ave,,,,42.329972,-71.146011,,,https://www.mbta.com/stops/11845,,0,,0,Brookline,Chestnut Hill Avenue,Ackers Avenue,3.0
413,1185,1185.0,Washington St @ Dimock St,,,,42.318908,-71.09529,,,https://www.mbta.com/stops/1185,,0,,1,Boston,Washington Street,Dimock Street,3.0
414,11853,11853.0,Chestnut St opp Oak St,,,,42.277023,-71.237377,,,https://www.mbta.com/stops/11853,,0,,0,Needham,Chestnut Street,Oak Street,3.0
415,1186,1186.0,Washington St @ Bragdon St,,,,42.317415000000004,-71.096775,,,https://www.mbta.com/stops/1186,,0,,1,Boston,Washington Street,Bragdon Street,3.0
416,11860,11860.0,Robert St @ Belgrade Ave,,,,42.28676,-71.131106,,,https://www.mbta.com/stops/11860,,0,,1,Boston,Robert Street,Belgrade Avenue,3.0
417,11868,11868.0,5 Walter St opp Hewlett St,,,,42.289151000000004,-71.133832,,,https://www.mbta.com/stops/11868,,0,,1,Boston,Walter Street,Hewlett Street,3.0
418,1187,1187.0,Washington St @ Columbus Ave,,,,42.316299,-71.097858,,,https://www.mbta.com/stops/1187,,0,,1,Boston,Washington Street,West Walnut Park,3.0
419,1188,1188.0,1990 Columbus Ave,,,,42.315394,-71.09781600000001,,,https://www.mbta.com/stops/1188,,0,,1,Boston,Columbus Avenue,Weld Avenue,3.0
420,1189,1189.0,Cambridge St @ Mass Pike,,,,42.360808,-71.11866500000001,,,https://www.mbta.com/stops/1189,,0,,2,Boston,Cambridge Street,Allston Toll Plaza,3.0
421,11891,11891.0,Pearl St @ Congress St,,,,42.357495,-71.056251,,,https://www.mbta.com/stops/11891,,0,,1,Boston,Post Office Square,Water Street,3.0
422,1190,1190.0,Cambridge St @ Seattle St,,,,42.35889,-71.123853,,,https://www.mbta.com/stops/1190,,0,,1,Boston,Cambridge Street,Seattle Street,3.0
423,1191,1191.0,Cambridge St @ Lincoln St,,,,42.357458,-71.128045,,,https://www.mbta.com/stops/1191,,0,,1,Boston,Cambridge Street,,3.0
424,11917,11917.0,Chestnut Hill Ave @ Buckminster Rd,,,,42.332414,-71.14671899999999,,,https://www.mbta.com/stops/11917,,0,,0,Brookline,Chestnut Hill Avenue,Buckminster Road,3.0
425,1193,1193.0,Cambridge St @ Franklin St,,,,42.355551,-71.132875,,,https://www.mbta.com/stops/1193,,0,,1,Boston,Cambridge Street,Harvard Avenue,3.0
426,11939,11939.0,Centre St @ Eliot St,,,,42.309651,-71.115764,,,https://www.mbta.com/stops/11939,,0,,1,Boston,Centre Street,Eliot Street,3.0
427,1195,1195.0,Cambridge St @ Emery Rd,,,,42.354278,-71.135846,,,https://www.mbta.com/stops/1195,,0,,1,Boston,Cambridge Street,Emery Road,3.0
428,1196,1196.0,N Beacon St @ Cambridge St,,,,42.353747999999996,-71.13812800000001,,,https://www.mbta.com/stops/1196,,0,,1,Boston,North Beacon Street,,3.0
429,1197,1197.0,N Beacon St opp Saunders St,,,,42.35436,-71.141738,,,https://www.mbta.com/stops/1197,,0,,1,Boston,North Beacon Street,Saunders Street,3.0
430,11971,11971.0,Arthur St @ Guest St - Stop & Shop,,,,42.356306,-71.14146099999999,,,https://www.mbta.com/stops/11971,,0,,1,Boston,Arthur Street,Guest Street,3.0
431,11972,11972.0,Guest St @ Life St,,,,42.357109,-71.145623,,,https://www.mbta.com/stops/11972,,0,,0,Boston,Guest Street,Life Street,3.0
432,119863,119863.0,Shirley St @ Winthrop Ferry Terminal,,,,42.367208000000005,-70.970606,,,https://www.mbta.com/stops/119863,,0,,1,Winthrop,Shirley Street,,3.0
433,1199,1199.0,N Beacon St @ Life St,,,,42.355509999999995,-71.146275,,,https://www.mbta.com/stops/1199,,0,,1,Boston,North Beacon Street,Etna Street,3.0
434,119913,119913.0,Shirley St opp Winthrop Ferry Terminal,,,,42.367336,-70.97058,,,https://www.mbta.com/stops/119913,,0,,0,Winthrop,Shirley Street,,3.0
435,120,120.0,Rivermoor St @ Industrial Park,,,,42.278446,-71.177808,,,https://www.mbta.com/stops/120,,0,,2,Boston,Rivermoor Street,,3.0
436,1200,1200.0,N Beacon St @ Market St,,,,42.356163,-71.148811,,,https://www.mbta.com/stops/1200,,0,,1,Boston,North Beacon Street,Market Street,3.0
437,1202,1202.0,N Beacon St @ Vineland St,,,,42.357186999999996,-71.152796,,,https://www.mbta.com/stops/1202,,0,,0,Boston,North Beacon Street,Vineland Street,3.0
438,1203,1203.0,N Beacon St @ Birmingham Pkwy,,,,42.357994,-71.154394,,,https://www.mbta.com/stops/1203,,0,,2,Boston,North Beacon Street,Birmingham Parkway,3.0
439,1204,1204.0,Birmingham Pkwy @ Soldiers Field Rd,,,,42.358663,-71.157969,,,https://www.mbta.com/stops/1204,,0,,1,Boston,North Beacon Street,Parsons Street,3.0
440,1206,1206.0,Hobart St @ Brooks St,,,,42.355432,-71.16238,,,https://www.mbta.com/stops/1206,,0,,0,Boston,Hobart Street,Brooks Street,3.0
441,1208,1208.0,Hobart St @ Falkland St,,,,42.354751,-71.158514,,,https://www.mbta.com/stops/1208,,0,,0,Boston,Hobart Street,Falkland Street,3.0
442,12081,12081.0,Faneuil St @ Donnybrook Rd,,,,42.353889,-71.158537,,,https://www.mbta.com/stops/12081,,0,,1,Boston,Faneuil Street,Donnybrook Road,3.0
443,1210,1210.0,Faneuil St opp Garfield School,,,,42.352672999999996,-71.160986,,,https://www.mbta.com/stops/1210,,0,,0,Boston,Faneuil Street,Beechcroft Street,3.0
444,121008,121008.0,Curry College,,,,42.235159,-71.111037,,,https://www.mbta.com/stops/121008,,0,,0,Milton,Blue Hill Avenue,,3.0
445,121009,121009.0,Blue Hill Ave from Curry Coll to Canton Ave (FLAG),,,,42.226417,-71.116431,,,https://www.mbta.com/stops/121009,,0,,0,Milton,Blue Hill Avenue,,3.0
446,121010,121010.0,Opp 1904 Canton Ave @ Trailside Museum,,,,42.218345,-71.11952,,,https://www.mbta.com/stops/121010,,0,,2,Milton,Canton Avenue,Washington Street,3.0
447,121011,121011.0,Royall St @ Compushare Driveway,,,,42.207226,-71.134842,,,https://www.mbta.com/stops/121011,,0,,0,Canton,Royall Street,Green Street,3.0
448,121012,121012.0,Royall St @ Beacon Lane,,,,42.207967,-71.131106,,,https://www.mbta.com/stops/121012,,0,,1,Canton,Royall Street,,3.0
449,121013,121013.0,Royall St @ Dunkin Brands Driveway,,,,42.208061,-71.129262,,,https://www.mbta.com/stops/121013,,0,,0,Canton,Royall Street,,3.0
450,121014,121014.0,Royall St @ JW Foster Blvd,,,,42.207886,-71.124052,,,https://www.mbta.com/stops/121014,,0,,1,Canton,Royall Street,,3.0
451,121017,121017.0,1904 Canton Ave @ Trailside Museum,,,,42.218305,-71.119251,,,https://www.mbta.com/stops/121017,,0,,0,Milton,Canton Avenue,,3.0
452,121019,121019.0,Blue Hill Ave opp Curry College,,,,42.234934,-71.110934,,,https://www.mbta.com/stops/121019,,0,,2,Milton,Blue Hill Avenue,,3.0
453,1211,1211.0,Faneuil St @ Brooks St,,,,42.352456,-71.163066,,,https://www.mbta.com/stops/1211,,0,,0,Boston,Faneuil Street,Brooks Street,3.0
454,1212,1212.0,Faneuil St @ Brackett St,,,,42.352056,-71.16503,,,https://www.mbta.com/stops/1212,,0,,0,Boston,Faneuil Street,Brackett Street,3.0
455,1213,1213.0,Faneuil St @ Bigelow St,,,,42.351254,-71.167478,,,https://www.mbta.com/stops/1213,,0,,0,Boston,Faneuil Street,Bigelow Street,3.0
456,1214,1214.0,Faneuil St @ Oak Square,,,,42.351196,-71.167349,,,https://www.mbta.com/stops/1214,,0,,0,Boston,Faneuil Street,Bigelow Street,3.0
457,12144,12144.0,Huron Ave opp Park Ave,,,,42.378896000000005,-71.148062,,,https://www.mbta.com/stops/12144,,0,,0,Cambridge,Huron Avenue,,3.0
458,12145,12145.0,Huron Ave opp VFW Post 8818,,,,42.38016,-71.152585,,,https://www.mbta.com/stops/12145,,0,,0,Cambridge,Huron Avenue,Fresh Pond Place,3.0
459,12146,12146.0,Opp 700 Huron Ave,,,,42.381261,-71.154599,,,https://www.mbta.com/stops/12146,,0,,0,Cambridge,Huron Avenue,Fresh Pond Place,3.0
460,12147,12147.0,700 Huron Ave,,,,42.381181,-71.15467,,,https://www.mbta.com/stops/12147,,0,,0,Cambridge,Huron Avenue,Fresh Pond Place,3.0
461,12148,12148.0,Huron Ave @ VFW Post 8818,,,,42.380047,-71.152582,,,https://www.mbta.com/stops/12148,,0,,0,Cambridge,Huron Avenue,Cushing Street,3.0
462,12149,12149.0,Huron Ave @ Park Ave,,,,42.378799,-71.14809699999999,,,https://www.mbta.com/stops/12149,,0,,0,Cambridge,Huron Avenue,,3.0
463,1215,1215.0,Columbus Ave @ Bray St,,,,42.317244,-71.098115,,,https://www.mbta.com/stops/1215,,0,,0,Boston,Columbus Avenue,Bray Street,3.0
464,1216,1216.0,Columbus Ave @ Dimock St,,,,42.319449,-71.09816,,,https://www.mbta.com/stops/1216,,0,,0,Boston,Columbus Avenue,Dimock Street,3.0
465,1218,1218.0,Columbus Ave @ Ritchie St,,,,42.322309999999995,-71.098264,,,https://www.mbta.com/stops/1218,,0,,0,Boston,Columbus Avenue,Ritchie Street,3.0
466,1219,1219.0,Columbus Ave @ Centre St,,,,42.325015,-71.09808000000001,,,https://www.mbta.com/stops/1219,,0,,0,Boston,Columbus Avenue,Centre Street,3.0
467,122,122.0,Columbia Rd @ Dorchester Ave,,,,42.32066,-71.056974,,,https://www.mbta.com/stops/122,,0,,1,Boston,Columbia Road,Dorchester Avenue,3.0
468,1221,1221.0,Columbus Ave @ Cedar St,,,,42.328012,-71.096921,,,https://www.mbta.com/stops/1221,,0,,0,Boston,Columbus Avenue,Cedar Street,3.0
469,1222,1222.0,Columbus Ave @ Malcolm X Blvd,,,,42.331191,-71.094468,,,https://www.mbta.com/stops/1222,,0,,1,Boston,Columbus Avenue,Tremont Street,3.0
470,12231,12231.0,Ames St @ Broadway,,,,42.363498,-71.087704,,,https://www.mbta.com/stops/12231,,0,,0,Cambridge,Ames Street,Ames Place,3.0
471,1224,1224.0,Tremont St opp Prentiss St,,,,42.332706,-71.092343,,,https://www.mbta.com/stops/1224,,0,,1,Boston,Tremont Street,,3.0
472,1226,1226.0,Tremont St @ Ruggles St,,,,42.334793,-71.088549,,,https://www.mbta.com/stops/1226,,0,,0,Boston,Tremont Street,Ruggles Street,3.0
473,1227,1227.0,Tremont St @ Melnea Cass Blvd,,,,42.335698,-71.086826,,,https://www.mbta.com/stops/1227,,0,,0,Boston,Tremont Street,Melnea Cass Boulevard,3.0
474,1228,1228.0,Tremont St @ Hammond St,,,,42.337226,-71.08402199999999,,,https://www.mbta.com/stops/1228,,0,,0,Boston,Tremont Street,Hammond Street,3.0
475,123,123.0,Columbia Rd opp Pond St,,,,42.320046000000005,-71.059996,,,https://www.mbta.com/stops/123,,0,,0,Boston,Columbia Road,Pond Street,3.0
476,1230,1230.0,Tremont St @ Northampton St,,,,42.338746,-71.08115600000001,,,https://www.mbta.com/stops/1230,,0,,1,Boston,Tremont Street,Northampton Street,3.0
477,12301,12301.0,Massachusetts Ave @ Upland Rd,,,,42.388228999999995,-71.119545,,,https://www.mbta.com/stops/12301,,0,,1,Cambridge,Massachusetts Avenue,Upland Road,3.0
478,1231,1231.0,Tremont St @ W Springfield St,,,,42.339584,-71.079623,,,https://www.mbta.com/stops/1231,,0,,1,Boston,Tremont Street,West Springfield Street,3.0
479,1232,1232.0,Tremont St @ W Concord St,,,,42.340407,-71.078156,,,https://www.mbta.com/stops/1232,,0,,1,Boston,Tremont Street,West Concord Street,3.0
480,12323,12323.0,Park Ave @ Oakland Ave,,,,42.417802,-71.180683,,,https://www.mbta.com/stops/12323,,0,,1,Arlington,Park Avenue,Oakland Avenue,3.0
481,1233,1233.0,Tremont St @ W Newton St,,,,42.341236,-71.07665300000001,,,https://www.mbta.com/stops/1233,,0,,1,Boston,Tremont Street,West Newton Street,3.0
482,1234,1234.0,Tremont St @ W Brookline St,,,,42.341887,-71.075413,,,https://www.mbta.com/stops/1234,,0,,1,Boston,Tremont Street,West Brookline Street,3.0
483,1235,1235.0,Tremont St @ W Dedham St,,,,42.342665999999994,-71.073943,,,https://www.mbta.com/stops/1235,,0,,1,Boston,Tremont Street,West Dedham Street,3.0
484,12352,12352.0,Lake St @ Pleasant St,,,,42.405297999999995,-71.16406500000001,,,https://www.mbta.com/stops/12352,,0,,0,Belmont,Lake Street,Pleasant Street,3.0
485,1236,1236.0,Tremont St @ Waltham St,,,,42.343872999999995,-71.071653,,,https://www.mbta.com/stops/1236,,0,,1,Boston,Tremont Street,Waltham Street,3.0
486,12360,12360.0,Park Ave @ Park Circle,,,,42.415312,-71.180414,,,https://www.mbta.com/stops/12360,,0,,0,Arlington,Park Avenue,Park Circle,3.0
487,1237,1237.0,Tremont St @ E Berkeley St,,,,42.345145,-71.069868,,,https://www.mbta.com/stops/1237,,0,,1,Boston,Tremont Street,East Berkeley Street,3.0
488,12376,12376.0,Winthrop St @ Orchard St,,,,42.413057,-71.120846,,,https://www.mbta.com/stops/12376,,0,,0,Medford,Winthrop Street,Orchard Street,3.0
489,1238,1238.0,Tremont St @ Herald St,,,,42.347363,-71.068607,,,https://www.mbta.com/stops/1238,,0,,1,Boston,Tremont Street,,3.0
490,1239,1239.0,Tremont St @ Marginal St,,,,42.34818,-71.067595,,,https://www.mbta.com/stops/1239,,0,,1,Boston,Tremont Street,Church Street,3.0
491,124,124.0,Massachusetts Ave @ Columbia Rd,,,,42.320623,-71.06156700000001,,,https://www.mbta.com/stops/124,,0,,0,Boston,Massachusetts Avenue,Boston Street,3.0
492,1241,1241.0,Charles St S @ Park Plaza,,,,42.351748,-71.067101,,,https://www.mbta.com/stops/1241,,0,,1,Boston,Charles Street South,Park Plaza,3.0
493,1242,1242.0,Tremont St @ Charles St S,,,,42.348777,-71.06648100000001,,,https://www.mbta.com/stops/1242,,0,,0,Boston,Tremont Street,Jefferson Street,3.0
494,12432,12432.0,West Service Rd @ Spring St,,,,42.408189,-71.16976700000001,,,https://www.mbta.com/stops/12432,,0,,0,Arlington,Frontage Road,Ramp - Frontage Rd To Rt 2 Westbound,3.0
495,12439,12439.0,Prospect St @ Cambridge St,,,,42.37378,-71.09796300000001,,,https://www.mbta.com/stops/12439,,0,,0,Cambridge,Prospect Street,Clary Street,3.0
496,12451,12451.0,Prospect St @ Cambridge St,,,,42.373622,-71.09784300000001,,,https://www.mbta.com/stops/12451,,0,,0,Cambridge,Prospect Street,Clary Street,3.0
497,1246,1246.0,Tremont St @ Union Pk,,,,42.343672999999995,-71.072264,,,https://www.mbta.com/stops/1246,,0,,1,Boston,Tremont Street,Union Park,3.0
498,12465,12465.0,Wadsworth Rd @ Appleton St,,,,42.417136,-71.199535,,,https://www.mbta.com/stops/12465,,0,,0,Arlington,Wadsworth Rd,Appleton Street,3.0
499,12468,12468.0,Appleton St @ Virginia Rd,,,,42.418807,-71.191934,,,https://www.mbta.com/stops/12468,,0,,0,Arlington,Appleton Street,Wollaston Avenue,3.0
500,1247,1247.0,Tremont St @ Dartmouth St,,,,42.342909999999996,-71.07369,,,https://www.mbta.com/stops/1247,,0,,1,Boston,Tremont Street,West Dedham Street,3.0
501,1248,1248.0,Tremont St @ Pembroke St,,,,42.341738,-71.075917,,,https://www.mbta.com/stops/1248,,0,,1,Boston,Tremont Street,Aguadilla Street,3.0
502,1249,1249.0,Tremont St @ Rutland Sq,,,,42.341006,-71.077301,,,https://www.mbta.com/stops/1249,,0,,1,Boston,Tremont Street,Rutland Square,3.0
503,125,125.0,Massachusetts Ave @ Clapp St,,,,42.323479,-71.06394499999999,,,https://www.mbta.com/stops/125,,0,,0,Boston,Massachusetts Avenue,Clapp Street,3.0
504,1250,1250.0,Tremont St @ Worcester St,,,,42.340187,-71.078787,,,https://www.mbta.com/stops/1250,,0,,1,Boston,Tremont Street,Worcester Street,3.0
505,1251,1251.0,Tremont St @ W Springfield St,,,,42.339703,-71.079768,,,https://www.mbta.com/stops/1251,,0,,1,Boston,Tremont Street,West Springfield Street,3.0
506,12512,12512.0,Prospect St @ Oak St,,,,42.37616,-71.096266,,,https://www.mbta.com/stops/12512,,0,,0,Somerville,Prospect Street,Oak Street,3.0
507,1252,1252.0,Tremont St @ Northampton St,,,,42.338955,-71.081129,,,https://www.mbta.com/stops/1252,,0,,1,Boston,Tremont Street,Northampton Street,3.0
508,1253,1253.0,Tremont St @ Douglas Pk,,,,42.337824,-71.083178,,,https://www.mbta.com/stops/1253,,0,,1,Boston,Tremont Street,,3.0
509,12530,12530.0,Prospect St @ Webster Ave,,,,42.376669,-71.095686,,,https://www.mbta.com/stops/12530,,0,,0,Somerville,Prospect Street,Concord Avenue,3.0
510,1254,1254.0,Tremont St @ Burke St,,,,42.336908,-71.0848,,,https://www.mbta.com/stops/1254,,0,,1,Boston,Tremont Street,Burke Street,3.0
511,1255,1255.0,Tremont St @ Columbus Ave,,,,42.335778999999995,-71.08694799999999,,,https://www.mbta.com/stops/1255,,0,,1,Boston,Tremont Street,Melnea Cass Boulevard,3.0
512,1257,1257.0,Tremont St @ Prentiss St,,,,42.333071000000004,-71.092378,,,https://www.mbta.com/stops/1257,,0,,1,Boston,Tremont Street,Prentiss Street,3.0
513,1258,1258.0,Tremont St @ Roxbury Crossing Station,,,,42.331311,-71.094831,,,https://www.mbta.com/stops/1258,,0,,1,Boston,Columbus Avenue,Tremont Street,3.0
514,1259,1259.0,Malcolm X Blvd opp Madison Park HS,,,,42.33109,-71.09088100000001,,,https://www.mbta.com/stops/1259,,0,,1,Boston,Malcolm X Blvd,King Street,3.0
515,1260,1260.0,Columbus Ave @ New Cedar St,,,,42.328067,-71.09731,,,https://www.mbta.com/stops/1260,,0,,0,Boston,Columbus Avenue,,3.0
516,12610,12610.0,Somerville Ave @ Merriam St,,,,42.378242,-71.091691,,,https://www.mbta.com/stops/12610,,0,,1,Somerville,Somerville Avenue,Merriam Street,3.0
517,12614,12614.0,Waterhouse St @ Massachusetts Ave,,,,42.377759000000005,-71.120538,,,https://www.mbta.com/stops/12614,,0,,0,Cambridge,Waterhouse Street,Massachusetts Avenue Branch,3.0
518,12615,12615.0,Somerville Ave @ Church St,,,,42.381485,-71.10033100000001,,,https://www.mbta.com/stops/12615,,0,,1,Somerville,Somerville Avenue,Church Street,3.0
519,12616,12616.0,Somerville Ave @ School St,,,,42.381997999999996,-71.10185200000001,,,https://www.mbta.com/stops/12616,,0,,1,Somerville,Somerville Avenue,,3.0
520,12618,12618.0,Washington St opp Harris St,,,,42.249233000000004,-71.172161,,,https://www.mbta.com/stops/12618,,0,,0,Dedham,Washington Street,Harris Street,3.0
521,1262,1262.0,Columbus Ave @ Heath St,,,,42.325028,-71.098483,,,https://www.mbta.com/stops/1262,,0,,0,Boston,Columbus Avenue,,3.0
522,12636,12636.0,Broadway opp Clarendon Hill Busway,,,,42.406461,-71.132577,,,https://www.mbta.com/stops/12636,,0,,1,Somerville,Broadway,Busway,3.0
523,12637,12637.0,Broadway @ Sunnyside Ave,,,,42.407393,-71.134568,,,https://www.mbta.com/stops/12637,,0,,0,Arlington,Broadway,,3.0
524,12638,12638.0,Broadway @ Silk St,,,,42.408056,-71.135976,,,https://www.mbta.com/stops/12638,,0,,1,Arlington,Broadway,Silk Street,3.0
525,12639,12639.0,Broadway opp Cleveland St,,,,42.408827,-71.13759,,,https://www.mbta.com/stops/12639,,0,,1,Arlington,Broadway,Cleveland Street,3.0
526,1264,1264.0,Columbus Ave @ Amory St,,,,42.322363,-71.098628,,,https://www.mbta.com/stops/1264,,0,,1,Boston,Columbus Avenue,Centre Street,3.0
527,12640,12640.0,Broadway @ N Union St,,,,42.40965,-71.139285,,,https://www.mbta.com/stops/12640,,0,,1,Arlington,Broadway,North Union Street,3.0
528,12641,12641.0,Broadway opp Harlow St,,,,42.410664000000004,-71.14139300000001,,,https://www.mbta.com/stops/12641,,0,,0,Arlington,Broadway,Harlow Street,3.0
529,12642,12642.0,Broadway @ Tufts St,,,,42.411537,-71.14342099999999,,,https://www.mbta.com/stops/12642,,0,,1,Arlington,Broadway,Tufts Street,3.0
530,12643,12643.0,Broadway @ Allen St,,,,42.412422,-71.14557099999999,,,https://www.mbta.com/stops/12643,,0,,0,Arlington,Broadway,Allen Street,3.0
531,12645,12645.0,Broadway @ Massachusetts Ave,,,,42.414341,-71.15028199999999,,,https://www.mbta.com/stops/12645,,0,,1,Arlington,Broadway,Alton Street,3.0
532,12648,12648.0,Broadway @ Allen St,,,,42.412312,-71.145561,,,https://www.mbta.com/stops/12648,,0,,0,Arlington,Broadway,Allen Street,3.0
533,12649,12649.0,Broadway @ Tufts St,,,,42.411425,-71.143411,,,https://www.mbta.com/stops/12649,,0,,1,Arlington,Broadway,Tufts Street,3.0
534,1265,1265.0,Columbus Ave @ Dimock St,,,,42.319455,-71.098496,,,https://www.mbta.com/stops/1265,,0,,0,Boston,Columbus Avenue,Dimock Street,3.0
535,12650,12650.0,Broadway @ Harlow St,,,,42.410554,-71.14139399999999,,,https://www.mbta.com/stops/12650,,0,,0,Arlington,Broadway,Harlow Street,3.0
536,12651,12651.0,Broadway @ Oxford St,,,,42.40952,-71.139313,,,https://www.mbta.com/stops/12651,,0,,0,Arlington,Broadway,Oxford Street,3.0
537,12652,12652.0,Broadway @ Cleveland St,,,,42.408588,-71.137313,,,https://www.mbta.com/stops/12652,,0,,0,Arlington,Broadway,Cleveland Street,3.0
538,12653,12653.0,Broadway opp Silk St,,,,42.407932,-71.13596,,,https://www.mbta.com/stops/12653,,0,,0,Arlington,Broadway,Silk Street,3.0
539,12654,12654.0,Broadway opp Sunnyside Ave,,,,42.407284000000004,-71.134563,,,https://www.mbta.com/stops/12654,,0,,0,Arlington,Broadway,,3.0
540,1266,1266.0,Columbus Ave @ W Walnut Pk,,,,42.317066,-71.098434,,,https://www.mbta.com/stops/1266,,0,,0,Boston,Columbus Avenue,West Walnut Park,3.0
541,1267,1267.0,Columbus Ave @ Washington St,,,,42.315895000000005,-71.09839699999999,,,https://www.mbta.com/stops/1267,,0,,0,Boston,Columbus Avenue,Washington Street,3.0
542,1268,1268.0,Washington St @ Shepard St,,,,42.348224,-71.14988199999999,,,https://www.mbta.com/stops/1268,,0,,1,Boston,Washington Street,Shepard Street,3.0
543,1269,1269.0,Washington St @ Snow St,,,,42.34688,-71.14822099999999,,,https://www.mbta.com/stops/1269,,0,,1,Boston,Washington Street,Snow Street,3.0
544,12699,12699.0,Medford St @ Broadway - Magoun Sq,,,,42.397092,-71.104294,,,https://www.mbta.com/stops/12699,,0,,0,Somerville,Medford Street,Broadway,3.0
545,1270,1270.0,Washington St @ Monastery Rd,,,,42.346111,-71.14637900000001,,,https://www.mbta.com/stops/1270,,0,,0,Boston,Washington Street,Monastery Road,3.0
546,1272,1272.0,Washington St @ Euston St,,,,42.344633,-71.14468199999999,,,https://www.mbta.com/stops/1272,,0,,1,Boston,Washington Street,Euston Road,3.0
547,1273,1273.0,Washington St @ Commonwealth Ave,,,,42.343868,-71.143266,,,https://www.mbta.com/stops/1273,,0,,1,Boston,Washington Street,Commonwealth Avenue Frontage Road Westbound,3.0
548,1274,1274.0,Washington St @ Corey Rd,,,,42.342394,-71.140567,,,https://www.mbta.com/stops/1274,,0,,1,Boston,Washington Street,Corey Road,3.0
549,1275,1275.0,Wahington St @ Evans Rd,,,,42.341042,-71.137945,,,https://www.mbta.com/stops/1275,,0,,0,Brookline,Washington Street,Evans Road,3.0
550,12759,12759.0,Washington St @ Myrtle St - Cobble Hill Apt,,,,42.381696999999996,-71.084052,,,https://www.mbta.com/stops/12759,,0,,0,Somerville,Washington Street,Myrtle Street,3.0
551,1276,1276.0,Washington St @ Beacon St,,,,42.339515999999996,-71.135747,,,https://www.mbta.com/stops/1276,,0,,0,Brookline,Washington Street,Beacon Street,3.0
552,12767,12767.0,Springfield St opp Houghton St,,,,42.375283,-71.100063,,,https://www.mbta.com/stops/12767,,0,,0,Somerville,Springfield Street,Houghton Street,
553,1277,1277.0,684 Washington St,,,,42.338723,-71.134258,,,https://www.mbta.com/stops/1277,,0,,0,Brookline,Washington Street,,3.0
554,1278,1278.0,Washington St @ Winthrop Path,,,,42.338307,-71.131602,,,https://www.mbta.com/stops/1278,,0,,1,Brookline,Washington Street,Fairbanks Street,3.0
555,12783,12783.0,Gordon Ave @ Summer St,,,,42.25632,-71.125999,,,https://www.mbta.com/stops/12783,,0,,0,Boston,Gordon Avenue,Summer Street,3.0
556,12789,12789.0,West St @ Lodge Hill Rd,,,,42.264777,-71.127641,,,https://www.mbta.com/stops/12789,,0,,0,Boston,West Street,Lodgehill Road,3.0
557,1279,1279.0,Washington St @ Gardner Rd,,,,42.338412,-71.12915699999999,,,https://www.mbta.com/stops/1279,,0,,0,Brookline,Washington Street,,3.0
558,128,128.0,1010 Massachusetts Ave opp Magazine St,,,,42.327984,-71.06774399999999,,,https://www.mbta.com/stops/128,,0,,1,Boston,Massachusetts Avenue,Magazine Street,3.0
559,1280,1280.0,Washington St @ Gardner Path,,,,42.336982,-71.12648,,,https://www.mbta.com/stops/1280,,0,,1,Brookline,Washington Street,,3.0
560,1281,1281.0,Washington St @ Greenough Circle,,,,42.335128999999995,-71.124667,,,https://www.mbta.com/stops/1281,,0,,1,Brookline,Washington Street,Greenough Circle,3.0
561,12812,12812.0,West St opp Lodge Hill Rd,,,,42.264668,-71.12767099999999,,,https://www.mbta.com/stops/12812,,0,,0,Boston,West Street,Lodgehill Road,3.0
562,1282,1282.0,Washington St @ Cypress St,,,,42.334528000000006,-71.122877,,,https://www.mbta.com/stops/1282,,0,,1,Brookline,Washington Street,Cypress Street,3.0
563,12821,12821.0,Main St opp Schraffts Bldg,,,,42.383720000000004,-71.072326,,,https://www.mbta.com/stops/12821,,0,,1,Boston,Main Street,,3.0
564,12826,12826.0,Main St @ Union St,,,,42.374604999999995,-71.06385,,,https://www.mbta.com/stops/12826,,0,,1,Boston,Main Street,Union Street,3.0
565,12828,12828.0,Chelsea St opp Constitution Rd,,,,42.373833000000005,-71.05830999999999,,,https://www.mbta.com/stops/12828,,0,,0,Boston,Chelsea Street,Constitution Road,3.0
566,12829,12829.0,Chelsea St @ Warren St,,,,42.371907,-71.060949,,,https://www.mbta.com/stops/12829,,0,,0,Boston,Chelsea Street,City Square,3.0
567,1283,1283.0,Washington St @ Harvard St,,,,42.332915,-71.11887800000001,,,https://www.mbta.com/stops/1283,,0,,0,Brookline,Washington Street,Harvard Street,3.0
568,12836,12836.0,Chelsea St @ Warren St,,,,42.372149,-71.060233,,,https://www.mbta.com/stops/12836,,0,,1,Boston,Chelsea Street,Warren Street,3.0
569,12837,12837.0,Fifth St @ Chelsea St,,,,42.375105,-71.05609399999999,,,https://www.mbta.com/stops/12837,,0,,0,Boston,Fifth Street,Chelsea Street,
570,12838,12838.0,Chelsea St @ Fifth St,,,,42.375182,-71.056282,,,https://www.mbta.com/stops/12838,,0,,1,Boston,Chelsea Street,Fifth Street,3.0
571,12852,12852.0,Vine St @ Bunker Hill St,,,,42.376958,-71.05686,,,https://www.mbta.com/stops/12852,,0,,0,Boston,Vine Street,Bunker Hill Street,3.0
572,12853,12853.0,Thirteenth St @ Second Ave,,,,42.377067,-71.05115699999999,,,https://www.mbta.com/stops/12853,,0,,0,Boston,Thirteenth Street,First Avenue,3.0
573,12855,12855.0,First Ave @ Ninth St,,,,42.376088,-71.052615,,,https://www.mbta.com/stops/12855,,0,,0,Boston,First Avenue,Ninth Street,3.0
574,12856,12856.0,First Ave @ Fifth St,,,,42.374588,-71.055079,,,https://www.mbta.com/stops/12856,,0,,0,Boston,First Avenue,,3.0
575,12858,12858.0,Chelsea St @ Constitution Rd,,,,42.373771000000005,-71.05819100000001,,,https://www.mbta.com/stops/12858,,0,,1,Boston,Chelsea Street,Constitution Road,3.0
576,12859,12859.0,First Ave @ Terry Ring,,,,42.374815000000005,-71.05446500000001,,,https://www.mbta.com/stops/12859,,0,,1,Boston,First Avenue,Sixth Street,3.0
577,1286,1286.0,Washington St @ Harvard St,,,,42.333022,-71.118833,,,https://www.mbta.com/stops/1286,,0,,0,Brookline,Washington Street,Harvard Street,3.0
578,12860,12860.0,First Ave @ Ninth St,,,,42.376199,-71.052255,,,https://www.mbta.com/stops/12860,,0,,1,Boston,First Avenue,Ninth Street,3.0
579,12862,12862.0,Thirteenth St @ Fifth Ave,,,,42.37809,-71.052029,,,https://www.mbta.com/stops/12862,,0,,1,Boston,Thirteenth Street,Fourth Avenue,3.0
580,12866,12866.0,Bunker Hill St @ Baldwin St,,,,42.382514,-71.06973599999999,,,https://www.mbta.com/stops/12866,,0,,1,Boston,Bunker Hill Street,Baldwin Street,3.0
581,1287,1287.0,Washington St @ School St,,,,42.334491,-71.12247099999999,,,https://www.mbta.com/stops/1287,,0,,1,Brookline,Washington Street,Goodwin Place,3.0
582,1288,1288.0,Washington St opp Greenough St,,,,42.335239,-71.124648,,,https://www.mbta.com/stops/1288,,0,,1,Brookline,Washington Street,Greenough Circle,3.0
583,12888,12888.0,Mystic Ave opp Union St,,,,42.41437,-71.109877,,,https://www.mbta.com/stops/12888,,0,,1,Medford,Mystic Avenue,Union Street,3.0
584,1289,1289.0,Washington St @ Griggs Rd,,,,42.337403,-71.126747,,,https://www.mbta.com/stops/1289,,0,,1,Brookline,Washington Street,Griggs Road,3.0
585,12891,12891.0,Pearl St @ High St,,,,42.355395,-71.054079,,,https://www.mbta.com/stops/12891,,0,,0,Boston,Pearl Street,High Street,3.0
586,129,129.0,Rivermoor St @ Charles Park Rd,,,,42.278959,-71.175667,,,https://www.mbta.com/stops/129,,0,,0,Boston,Rivermoor Street,Gardner Street,3.0
587,1290,1290.0,Washington St opp Gardner Rd,,,,42.338497,-71.129184,,,https://www.mbta.com/stops/1290,,0,,0,Brookline,Washington Street,,3.0
588,1291,1291.0,Washington St @ Fairbanks St,,,,42.338364,-71.131336,,,https://www.mbta.com/stops/1291,,0,,0,Brookline,Washington Street,Fairbanks Street,3.0
589,1292,1292.0,Washington St @ Beacon St,,,,42.339199,-71.13506600000001,,,https://www.mbta.com/stops/1292,,0,,0,Brookline,Washington Street,Beacon Street,3.0
590,1293,1293.0,Washington St @ Bartlett St,,,,42.341245,-71.138162,,,https://www.mbta.com/stops/1293,,0,,1,Brookline,Washington Street,Bartlett Street,3.0
591,12932,12932.0,Columbia Rd @ Bird St,,,,42.314492,-71.067211,,,https://www.mbta.com/stops/12932,,0,,1,Boston,Columbia Road,Bird Street,3.0
592,1294,1294.0,Washington St @ Corey Rd,,,,42.342465999999995,-71.140502,,,https://www.mbta.com/stops/1294,,0,,1,Boston,Washington Street,Corey Road,3.0
593,12940,12940.0,Boston St @ Fr Songin Way,,,,42.328037,-71.057845,,,https://www.mbta.com/stops/12940,,0,,1,Boston,Boston Street,Songin Way,3.0
594,1295,1295.0,Washington St @ Commonwealth Ave,,,,42.343586,-71.142524,,,https://www.mbta.com/stops/1295,,0,,1,Boston,Washington Street,Commonwealth Avenue Frontage Road Eastbound,3.0
595,1296,1296.0,Washington St opp Euston Rd,,,,42.344592999999996,-71.144416,,,https://www.mbta.com/stops/1296,,0,,1,Boston,Washington Street,Euston Road,3.0
596,1298,1298.0,Washington St @ Monastery Rd,,,,42.346056,-71.146117,,,https://www.mbta.com/stops/1298,,0,,1,Boston,Washington Street,,3.0
597,1299,1299.0,Washington St opp Snow St,,,,42.346992,-71.148213,,,https://www.mbta.com/stops/1299,,0,,1,Boston,Washington Street,Snow Street,3.0
598,1300,1300.0,Washington St opp Shepard St,,,,42.34813,-71.149638,,,https://www.mbta.com/stops/1300,,0,,1,Boston,Washington Street,Shepard Street,3.0
599,1301,1301.0,7 Winship St,,,,42.348814000000004,-71.150755,,,https://www.mbta.com/stops/1301,,0,,0,Boston,Winship Street,Washington Street,3.0
600,1302,1302.0,Harvard Ave @ Commonwealth Ave,,,,42.350621000000004,-71.13124499999999,,,https://www.mbta.com/stops/1302,,0,,1,Boston,Harvard Avenue,Commonwealth Avenue Frontage Road Westbound,3.0
601,1304,1304.0,Harvard St @ Coolidge St,,,,42.345707,-71.127662,,,https://www.mbta.com/stops/1304,,0,,1,Brookline,Harvard Street,Coolidge Street,3.0
602,1306,1306.0,Harvard St @ Shailer St,,,,42.343973999999996,-71.12451800000001,,,https://www.mbta.com/stops/1306,,0,,1,Brookline,Harvard Street,Shailer Street,3.0
603,1308,1308.0,Harvard St @ Beacon St,,,,42.342499,-71.121845,,,https://www.mbta.com/stops/1308,,0,,1,Brookline,Harvard Street,Green Street,3.0
604,1309,1309.0,Harvard St @ Marion St,,,,42.339636999999996,-71.121038,,,https://www.mbta.com/stops/1309,,0,,0,Brookline,Harvard Street,Marion Street,3.0
605,13093,13093.0,Adams St @ Grenwold Rd,,,,42.253015999999995,-71.017747,,,https://www.mbta.com/stops/13093,,0,,0,Quincy,Adams Street,Whitwell Street,3.0
606,1310,1310.0,Harvard St @ Harris St,,,,42.337914000000005,-71.12150600000001,,,https://www.mbta.com/stops/1310,,0,,0,Brookline,Harvard Street,Harris Street,3.0
607,1311,1311.0,Harvard St @ School St,,,,42.335832,-71.120492,,,https://www.mbta.com/stops/1311,,0,,1,Brookline,Harvard Street,School Street,3.0
608,13121,13121.0,Dewar St @ Dorchester Ave,,,,42.309967,-71.057763,,,https://www.mbta.com/stops/13121,,0,,0,Boston,Dewar Street,Greenmount Street,3.0
609,1313,1313.0,Harvard St @ Washington St,,,,42.332975,-71.118774,,,https://www.mbta.com/stops/1313,,0,,1,Brookline,Harvard Street,Washington Street,3.0
610,1314,1314.0,Huntington Ave @ S Huntington Ave,,,,42.331737,-71.112844,,,https://www.mbta.com/stops/1314,,0,,1,Boston,Huntington Avenue,Jamaicaway Frontage Road,3.0
611,13142,13142.0,Newland St @ Huckins Ave,,,,42.297056,-71.01647,,,https://www.mbta.com/stops/13142,,0,,0,Quincy,Newland Street,Huckins Avenue,3.0
612,1315,1315.0,Huntington Ave @ Parker Hill Ave,,,,42.333092,-71.109678,,,https://www.mbta.com/stops/1315,,0,,1,Boston,Huntington Avenue,Parker Hill Avenue,3.0
613,1317,1317.0,Huntington Ave opp Fenwood Rd,,,,42.333704,-71.105586,,,https://www.mbta.com/stops/1317,,0,,1,Boston,Huntington Avenue,Fenwood Road,3.0
614,1319,1319.0,Tremont St opp Wigglesworth St,,,,42.333785,-71.103909,,,https://www.mbta.com/stops/1319,,0,,1,Boston,Tremont Street,Wigglesworth Street,3.0
615,1320,1320.0,Tremont St @ Saint Alphonsus St,,,,42.332857000000004,-71.101262,,,https://www.mbta.com/stops/1320,,0,,1,Boston,Tremont Street,Saint Alphonsus Street,3.0
616,1322,1322.0,Tremont St @ Sewall St,,,,42.331819,-71.097819,,,https://www.mbta.com/stops/1322,,0,,1,Boston,Tremont Street,Sewall Street,3.0
617,1323,1323.0,Tremont St @ Columbus Ave,,,,42.331478999999995,-71.095333,,,https://www.mbta.com/stops/1323,,0,,1,Boston,Tremont Street,Columbus Avenue,3.0
618,13245,13245.0,Sea St @ Moffat Rd,,,,42.262116,-70.986311,,,https://www.mbta.com/stops/13245,,0,,0,Quincy,Sea Street,Moffat Road,3.0
619,1325,1325.0,Humboldt Ave @ Seaver St,,,,42.3101,-71.09188,,,https://www.mbta.com/stops/1325,,0,,1,Boston,Humboldt Avenue,Seaver Street,3.0
620,1326,1326.0,Humboldt Ave @ Hutchings St,,,,42.311245,-71.090936,,,https://www.mbta.com/stops/1326,,0,,1,Boston,Humboldt Avenue,Hutchings Street,3.0
621,1327,1327.0,Humboldt Ave @ Homestead St,,,,42.311784,-71.090515,,,https://www.mbta.com/stops/1327,,0,,1,Boston,Humboldt Avenue,Homestead Street,3.0
622,1328,1328.0,Humboldt Ave @ Crawford St,,,,42.313354,-71.08924,,,https://www.mbta.com/stops/1328,,0,,1,Boston,Humboldt Avenue,Crawford Street,3.0
623,133,133.0,Massachusetts Ave opp Clapp St,,,,42.323547,-71.064269,,,https://www.mbta.com/stops/133,,0,,0,Boston,Massachusetts Avenue,Clapp Street,3.0
624,1330,1330.0,Humboldt Ave @ Waumbeck St,,,,42.314496000000005,-71.08833800000001,,,https://www.mbta.com/stops/1330,,0,,1,Boston,Humboldt Avenue,Waumbeck Street,3.0
625,1331,1331.0,Humboldt Ave @ Wyoming St,,,,42.315715999999995,-71.08735,,,https://www.mbta.com/stops/1331,,0,,1,Boston,Humboldt Avenue,Wyoming Street,3.0
626,1332,1332.0,Humboldt Ave @ Townsend St,,,,42.316934,-71.08650300000001,,,https://www.mbta.com/stops/1332,,0,,1,Boston,Humboldt Avenue,Townsend Street,3.0
627,13321,13321.0,Townsend St @ Warren St,,,,42.316456,-71.08345899999999,,,https://www.mbta.com/stops/13321,,0,,0,Boston,Townsend Street,Warren Street,3.0
628,1334,1334.0,Humboldt Ave @ Humboldt Ct,,,,42.318292,-71.08614200000001,,,https://www.mbta.com/stops/1334,,0,,1,Boston,Humboldt Avenue,Munroe Street,3.0
629,1335,1335.0,Humboldt Ave @ ML King Blvd,,,,42.319237,-71.085952,,,https://www.mbta.com/stops/1335,,0,,1,Boston,Humboldt Avenue,Martin Luther King Boulevard,3.0
630,1337,1337.0,Walnut Ave @ Dale St,,,,42.321185,-71.085676,,,https://www.mbta.com/stops/1337,,0,,0,Boston,Walnut Avenue,Dale Street,3.0
631,13378,13378.0,Adams St @ Gallivan Blvd,,,,42.282827000000005,-71.055898,,,https://www.mbta.com/stops/13378,,0,,1,Boston,Adams Street,Gallivan Boulevard,3.0
632,1338,1338.0,Walnut Ave @ Rockland St,,,,42.322364,-71.084855,,,https://www.mbta.com/stops/1338,,0,,0,Boston,Walnut Avenue,Rockland Street,3.0
633,1339,1339.0,Walnut Ave @ St Richard St,,,,42.323534,-71.084009,,,https://www.mbta.com/stops/1339,,0,,0,Boston,Walnut Avenue,Saint Richard Street,3.0
634,134,134.0,Massachusetts Ave @ Columbia Rd,,,,42.320516,-71.061612,,,https://www.mbta.com/stops/134,,0,,1,Boston,Massachusetts Avenue,Boston Street,3.0
635,1340,1340.0,Walnut Ave @ Circuit St,,,,42.323789,-71.08385200000001,,,https://www.mbta.com/stops/1340,,0,,0,Boston,Walnut Avenue,Circuit Street,3.0
636,13400,13400.0,Bryant Ave @ Upton St,,,,42.250367,-71.03838499999999,,,https://www.mbta.com/stops/13400,,0,,0,Quincy,Bryant Avenue,Robertson Street,3.0
637,13402,13402.0,Quarry St @ Common St,,,,42.250116999999996,-71.02508399999999,,,https://www.mbta.com/stops/13402,,0,,0,Quincy,Quarry Street,Common Street,3.0
638,13403,13403.0,Opp 254 Quarry St,,,,42.248427,-71.020566,,,https://www.mbta.com/stops/13403,,0,,0,Quincy,Quarry Street,,3.0
639,13404,13404.0,Opp 150 Quarry St,,,,42.246347,-71.016357,,,https://www.mbta.com/stops/13404,,0,,0,Quincy,Quarry Street,,3.0
640,13406,13406.0,Granite St @ Packards Lane,,,,42.244425,-71.010311,,,https://www.mbta.com/stops/13406,,0,,0,Quincy,Granite Street,Quarry Street,3.0
641,13407,13407.0,125 Granite St,,,,42.246089000000005,-71.006084,,,https://www.mbta.com/stops/13407,,0,,0,Quincy,Granite Street,Access Road,3.0
642,1341,1341.0,Walnut Ave @ Rockland St,,,,42.322356,-71.085003,,,https://www.mbta.com/stops/1341,,0,,0,Boston,Walnut Avenue,Rockland Street,3.0
